[
  {
    "name": "Kelvedon Hatch Secret Nuclear Bunker",
    "lat": 51.67242000000001,
    "lon": 0.255419,
    "description": "A must visit, decommissioned nuclear bunker\nPhotos: http://www.musto.me/#/content/Secret/"
  },
  {
    "name": "Redsands Sea Forts",
    "lat": 51.503614,
    "lon": 1.112366,
    "description": "http://www.project-redsand.com/\n\nAmazing mad sea forts, day trips on the link above."
  },
  {
    "name": "Darwen Tower",
    "lat": 53.9027086,
    "lon": -2.3187597,
    "description": "http://en.wikipedia.org/wiki/Jubilee_Tower"
  },
  {
    "name": "A625 - abandoned road",
    "lat": 53.353828,
    "lon": -1.8148022999999998,
    "description": "http://cotch.net/blog/100512_1932"
  },
  {
    "name": "Brighton's magnificent sewers",
    "lat": 50.6037509,
    "lon": -0.1237862,
    "description": "Suggested by @aleksk"
  },
  {
    "name": "Didcot Railway Centre",
    "lat": 51.077645,
    "lon": 0.6646730000000001,
    "description": null
  },
  {
    "name": "Bekonscot Model Village & Railway",
    "lat": 54.20101,
    "lon": -2.131348,
    "description": null
  },
  {
    "name": "Lynton & Lynmouth Cliff Railway",
    "lat": 51.18623,
    "lon": -3.8122560000000005,
    "description": null
  },
  {
    "name": "West Kennet Long Barrow",
    "lat": 51.40948600000001,
    "lon": -1.851883,
    "description": null
  },
  {
    "name": "Silbury Hill",
    "lat": 51.277381,
    "lon": -1.9693,
    "description": null
  },
  {
    "name": "Avebury Stone Circles",
    "lat": 51.428015,
    "lon": -1.854668,
    "description": null
  },
  {
    "name": "Big Pit National Coal Museum",
    "lat": 51.771905,
    "lon": -3.106272,
    "description": null
  },
  {
    "name": "Thames Barrier",
    "lat": 51.440313,
    "lon": 0.177841,
    "description": "Eastmoor St, London SE7 8LX, UK"
  },
  {
    "name": "Sir John Soane's Museum",
    "lat": 51.517823,
    "lon": -0.11655800000000001,
    "description": null
  },
  {
    "name": "Pitt Rivers Museum",
    "lat": 51.758836,
    "lon": -1.255274,
    "description": null
  },
  {
    "name": "Romney Hythe & Dymchurch Railway (Dungeness)",
    "lat": 58.63121699999999,
    "lon": -146.25,
    "description": null
  },
  {
    "name": "Dungeness A Power Station",
    "lat": 50.913968,
    "lon": 0.9840009999999999,
    "description": "Dungeness, Romney Marsh, Kent TN29 9PP, UK"
  },
  {
    "name": "Dungeness B Power Station",
    "lat": 50.837167,
    "lon": 0.390015,
    "description": "Dungeness, Romney Marsh, Kent TN29 9PX, UK"
  },
  {
    "name": "Sound mirrors",
    "lat": 50.955832,
    "lon": 0.9530640000000001,
    "description": "http://www.andrewgrantham.co.uk/soundmirrors/"
  },
  {
    "name": "Pendon Museum",
    "lat": 51.590723,
    "lon": -1.274414,
    "description": null
  },
  {
    "name": "Brecon Mountain Railway Co Ltd",
    "lat": 51.778037,
    "lon": -3.356323,
    "description": null
  },
  {
    "name": "Jodrell Bank",
    "lat": 50.878777,
    "lon": -2.25769,
    "description": "Lower Withington, Cheshire East SK11, UK"
  },
  {
    "name": "Salt Museum",
    "lat": 54.27164,
    "lon": -3.9990230000000007,
    "description": null
  },
  {
    "name": "The Eden Project",
    "lat": 50.359761,
    "lon": -4.742961,
    "description": null
  },
  {
    "name": "Newlyn Tidal Observatory",
    "lat": 50.101203,
    "lon": -5.539856,
    "description": "This is the place that Sea level is measured from on all UK Ordnance Survey maps. You're not allowed on the jetty that's the actual location, but you're allowed on the jetty opposite."
  },
  {
    "name": "Midland Railway centre",
    "lat": 53.551731,
    "lon": -1.680908,
    "description": "A Standard Gauge Railway Running Steam and Diesel Hauled Passenger Trains with a Museum Dedicated to the Midland Railway.\n\nhttp://www.midlandrailwaycentre.co.uk/\n\nAlso home each July to Indietracks, almost certainly the nerdiest music festival in the UK."
  },
  {
    "name": "The Rock Slide",
    "lat": 51.546335,
    "lon": -1.983032,
    "description": "Right next to the Clifton Suspension Bridge.\n\nSee photo here http://www.geograph.org.uk/photo/93786\n\nAs the text says \"Limestone polished by many thousands of young (and not so young!) bottoms. My grandmother remembered sliding down this rockface as a child in the first decade of the 1900's\""
  },
  {
    "name": "Newport Transporter Bridge",
    "lat": 51.570682,
    "lon": -2.986007,
    "description": "http://www.fontb.org.uk/\n\nThe Newport Transporter Bridge spans the River Usk in Newport, South Wales and is a Grade 1 Listed Structure. Its historic importance stems from its very unusual design. There are only two others like it in the UK and seven in the World. It is owned and run by Newport City Council and celebrated its centenary in September 2006."
  },
  {
    "name": "Eling Tide Mill",
    "lat": 52.109879,
    "lon": -0.082397,
    "description": "Tidal powered grain mill...\nhttp://s277147633.websitehome.co.uk/Elingmill.html"
  },
  {
    "name": "Woolsthorpe Manor",
    "lat": 52.809195,
    "lon": -0.630684,
    "description": "Birthplace of Issac Newton, and location of many of his most famous experiments. Now owned by the National Trust.\n\n \nhttp://www.nationaltrust.org.uk/main/w-woolsthorpemanor\n\nhttp://en.wikipedia.org/wiki/Woolsthorpe_Manor"
  },
  {
    "name": "Aberystwyth Cliff Railway",
    "lat": 52.411634,
    "lon": -4.089661,
    "description": "http://www.aberystwythcliffrailway.co.uk/new_page_1.htm"
  },
  {
    "name": "Holden Park",
    "lat": 53.383328,
    "lon": -2.373047,
    "description": "A very fine example of Victorian Hypertufa\nhttp://en.wikipedia.org/wiki/Holden_Park"
  },
  {
    "name": "Rutland Water Nature Reserve",
    "lat": 53.514185,
    "lon": -0.9448240000000001,
    "description": "http://www.rutlandwater.org.uk/"
  },
  {
    "name": "Cruachan Power Station",
    "lat": 56.406304,
    "lon": -5.119629,
    "description": "Drive inside the mountain to see the turbines, James Bond style. Hydro powered."
  },
  {
    "name": "Denny Tank Museum",
    "lat": 55.943234,
    "lon": -4.562845,
    "description": "Discover the world's first commercial ship model experiment tank, the length of a football pitch, and see the ship model carriage running.\n\nExperience the working environment of the model makers, clay moulders and carpenters in 1882.\n\nhttp://scottishmaritimemuseum.org/dumbarton.html"
  },
  {
    "name": "William & Caroline Herschel's House",
    "lat": 51.289406,
    "lon": -2.285156,
    "description": "19 New King Street, BA1 2BL: The house where the astronomers William & Caroline Herschel lived in the 1700s. It's now a mini museum with a discount for astronomers!"
  },
  {
    "name": "Williamson Tunnels",
    "lat": 53.396432,
    "lon": -2.944336,
    "description": "http://www.williamsontunnels.co.uk/\nMad underground network of tunnels built by a philanthropist in the early 1800s"
  },
  {
    "name": "Horsea Island Torpedo Testing Range",
    "lat": 50.778155,
    "lon": -1.208496,
    "description": "An artificial lagoon used for testing of early torpedos. Only really worth the visit if you are a scuba diver (and questionable even then since it is very silty)."
  },
  {
    "name": "Flag Fen Archaeology Park",
    "lat": 50.513427,
    "lon": -1.757812,
    "description": "http://www.flagfen.com/"
  },
  {
    "name": "West Midlands Police Museum",
    "lat": 52.92215100000001,
    "lon": 0.7580570000000001,
    "description": "http://www.westmidlandspolicemuseum.co.uk\n\"visitors will be           allowed to take photographs in the cell\""
  },
  {
    "name": "Anglesey Geopark Llanddwyn Island",
    "lat": 53.139975,
    "lon": -4.410667,
    "description": "Precambrian pillow lavas on the beach"
  },
  {
    "name": "National Fruit Collection",
    "lat": 52.862497000000005,
    "lon": -1.312866,
    "description": "National Fruit Collection (http://www.nationalfruitcollection.org.uk/)\n\n \nhttp://www.brogdalecollections.co.uk/\n\nNext level fruit knowledge. Head down around harvest time (they have cherry days, apple days etc). \n\n \nNice day trip from London on the high speed train, easy stroll from Faversham station to Brogdale Farm. Repair to the beer garden at the Sun Inn (http://www.sunfaversham.co.uk) for a pint of Shepherd's Neame afterwards."
  },
  {
    "name": "Avoncroft Museum of Historic Buildings",
    "lat": 52.988337,
    "lon": -3.867187,
    "description": "http://www.avoncroft.org.uk/ (collections/special-collections/)\n\"In 1994 the Museum acquired the National Telephone Kiosk Collection. It contains 32 telephone booths, a stationary exchange and two mobile exchanges from the 20th and early 21st century.\""
  },
  {
    "name": "Centre for Alternative Technology",
    "lat": 52.623633,
    "lon": -3.840065,
    "description": "http://www.cat.org.uk"
  },
  {
    "name": "The Telephone at the centre of Great Britain",
    "lat": 55.832144,
    "lon": -2.515869,
    "description": "Here in Newton is a telephone with a plaque which declares this village as being at the centre of Great Britain. Feel free to have a nerdy argument as to which definition of 'centre' they used."
  },
  {
    "name": "Whiteford Lighthouse",
    "lat": 51.652573,
    "lon": -4.251081,
    "description": "http://en.wikipedia.org/wiki/Whiteford_Lighthouse"
  },
  {
    "name": "The Black Country Living Museum",
    "lat": 52.787815,
    "lon": -2.419739,
    "description": null
  },
  {
    "name": "Orford Ness",
    "lat": 52.086257,
    "lon": 1.532593,
    "description": "Military test site, inc bomb test chambers and the fantastically-named Cobra Mist experimental radar station. (wikipedia) (http://en.wikipedia.org/wiki/Orford_Ness)"
  },
  {
    "name": "Porthcurno Telegraph museum.",
    "lat": 50.045731,
    "lon": -5.654655,
    "description": "Where the many of the empire's intercontinental telegraph wire landed.  Includes 1st world war bunkers and *lots* of proper mahogany and brass instruments.  My wife just didn't get it...\nSimon\nhttp://www.porthcurno.org.uk/"
  },
  {
    "name": "National Space Centre",
    "lat": 52.654708,
    "lon": -1.133652,
    "description": "I get excited just by the road signs on the M1 directing you to this science nirvana..."
  },
  {
    "name": "Mulberry Harbour",
    "lat": 54.771385,
    "lon": -4.361916,
    "description": "Not sure what's left, but 20+ years ago, in Rigg Bay, there were the remenants of the trial Mulberry Harbours used in D Day\n\nhttp://en.wikipedia.org/wiki/Mulberry_harbour"
  },
  {
    "name": "The Falkirk Wheel",
    "lat": 56.001357,
    "lon": -3.842125,
    "description": "Engineering beauty\nwww.falkirk-wheel.com"
  },
  {
    "name": "Placemark 58",
    "lat": 51.614686,
    "lon": -0.220671,
    "description": null
  },
  {
    "name": "Northern Heights Railway",
    "lat": 51.608636,
    "lon": -0.211487,
    "description": "Planned Northern Line extension - http://underground-history.co.uk/northernh4.php"
  },
  {
    "name": "Abandoned motorway junction",
    "lat": 51.604691,
    "lon": -0.239983,
    "description": "Original end of the M1 to join to the A1. Abandoned now but all signs, markings etc still in place! \n\n(Update Aug 2011: Road signs are no longer there, some road markings remain) Photos: http://www.musto.me/#/content/Abandoned/"
  },
  {
    "name": "Cambridge Museum of Technology",
    "lat": 52.2160217,
    "lon": 0.151062,
    "description": "An old sewage pumphouse, with still-working steam pumps. Open on Sundays only, 2-5pm, and in winter, only the first one of the month. Occasional Steam days, plus other events. Small collection of ancient analytical equipment from Cambirdge Instruments, including an Electron Microanalyser- forerunner to the Electron Microscope. It's nerdy, it's ramshackle, it's clearly run with a lot of love and not much money. I'd call it a hidden gem, but you can see the shimmney from a long way away! Website is here (http://www.museumoftechnology.com/news.html)\nAdded by @Al__S"
  },
  {
    "name": "Cambridge University Museums",
    "lat": 52.20281,
    "lon": 0.12093,
    "description": "A cluster of very nerdy oild-style academic musuems. Lots of near identical samples in glass cabinets with handwritten labels. Gradually becoming more \"accesible\", but doubt they'lll ever be anything less than nerdy. The Museum of Zoology is, as you'd expect, stuffed full of animals stuffed full. \nWebsite (http://www.cam.ac.uk/museums/)\nadded by @Al__S"
  },
  {
    "name": "Southend Pier",
    "lat": 51.51558,
    "lon": 0.708618,
    "description": "The longest leisure pier there is. Has a railway along it, and a lifeboat station at the end."
  },
  {
    "name": "Imperial War Museum Duxford",
    "lat": 52.096,
    "lon": 0.135398,
    "description": "Huge collection of (mainly military) planes. Houses a pre-production (and definitely not prototype, oh no, they don't like you calling it that!) Concorde full of test equipment. American hanger has an SR-71 Blackbird. End hanger is full of ground vehicles (tanks!). Large number of operational aircraft- planes fly most days, including Spitfires (multiple). Some hangers very polished, very professional, but operational ones populated by old men in oil stained boiler suits\nWebsite (http://duxford.iwm.org.uk/)\nadded by @Al__S"
  },
  {
    "name": "Marconi Centre, Poldhu",
    "lat": 65.07213,
    "lon": -84.199215,
    "description": "http://marconi-centre-poldhu.org.uk/ \nBeautiful clifftop site of Marconi's first trans-Atlantic radio signal, now has visible earthworks and a shed staffed by part-time radio amateurs"
  },
  {
    "name": "Pentrich Revolution Marker",
    "lat": 53.981935,
    "lon": -1.005249,
    "description": "A small memorial to the un-named person killed during the Pentrich Revolution, the only revolution we have had in this country."
  },
  {
    "name": "Natural History Museum at Tring",
    "lat": 51.790707,
    "lon": -0.66139,
    "description": "A bizarre Victorian collection of taxidermy, much loved by Hertfordshire school kids of a certain age because we all seemed to have a day trip here at some point.\n\nWatch out for the amazing dressed fleas...\n\nhttp://www.nhm.ac.uk/tring/"
  },
  {
    "name": "Tim Hunkin's Under the Pier Show",
    "lat": 52.32275,
    "lon": 1.708374,
    "description": "An arcade of machines and contraptions built by Tim Hunkin. Open every day 10am - 7pm in summer.\n\n(See http://www.flickr.com/photos/ben_on_the_move/sets/72157624201959032/ for a photo-tour of it from 2010)"
  },
  {
    "name": "Sheldon Country Park",
    "lat": 54.749991,
    "lon": -3.55957,
    "description": "Seats at the end of the runway of Birmingham Airport.  Park at Marston Green Railway Station, take a picnic and watch the planes."
  },
  {
    "name": "Camera Obscura",
    "lat": 55.946124,
    "lon": -3.198395,
    "description": "19thC example of technical expertise and wizardry. The museum beneath is full of miscellaneous illusions and optical oddities: pinhole cameras, holograms, and mirror maze."
  },
  {
    "name": "Alnwick Castle",
    "lat": 55.415758,
    "lon": -1.706067,
    "description": "Used to film much of the Harry Potter series."
  },
  {
    "name": "Barter Books",
    "lat": 55.409893,
    "lon": -1.699276,
    "description": "A massive, awesome second hand bookstore."
  },
  {
    "name": "Pitlochry Hydroelectric Dam & Salmon Ladder",
    "lat": 56.70752100000001,
    "lon": -3.7353520000000002,
    "description": "Pitlochry Hydro Dam is interesting enough but a Salmon Ladder Too! Viewing chambers in the Ladder give you a chance to see the salmon (in the Autumn), I saw about 10. \n\nThe ladder was specially constructed to enable salmon to by-pass the dam and make their way upstream. It enables around 5,000 salmon to return 6,000 miles to their spawning grounds."
  },
  {
    "name": "Enginuity",
    "lat": 52.593038,
    "lon": -2.746582,
    "description": "http://www.ironbridge.org.uk/our_attractions/enginuity/\nTF8 7DQ\nScience & Technology activities for kids.\nAdded by @robaker"
  },
  {
    "name": "Mechanical Music Museum",
    "lat": 51.828882,
    "lon": -1.834803,
    "description": "Keith Harding's World of Mechanical Music\nhttp://www.mechanicalmusic.co.uk/\nSmall museum stacked full of music boxes, player pianos, wax-cylinder players and all sorts."
  },
  {
    "name": "The Bakelite Museum",
    "lat": 51.723626,
    "lon": -3.304138,
    "description": null
  },
  {
    "name": "Cragside House (NT)",
    "lat": 55.310391,
    "lon": -1.900635,
    "description": "The massive country house of Victorian ubernerd, Lord Armstrong, founder of Newcastle University, inventor of the hydraulic accumulator, builder of warships. First house lit by hydro power, full of gadgets, lovely woody walks and a huge adventure playground. Best National Trust House Ever. \n\nhttp://www.nationaltrust.org.uk/main/w-cragsidehousegardenandestate"
  },
  {
    "name": "Grant Museum of Zoology",
    "lat": 51.51793,
    "lon": -0.134239,
    "description": "UCL has just reopened it's collection of 67,000 animal specimens in a new location. Come and see the bones of extinct creatures and Sir Victor Negus's bisected heads\n\nhttp://www.ucl.ac.uk/museums/zoology"
  },
  {
    "name": "Down House, Home of Charles Darwin",
    "lat": 51.333186,
    "lon": 0.05630500000000001,
    "description": null
  },
  {
    "name": "Jurrasic coast",
    "lat": 50.72415,
    "lon": -2.933371,
    "description": "There are lots and lots of fossils!\nBring a hammer and start exploring...\n\nFor those of the walking persuasion there is also the biggest hill in Devon (not saying much) and a wealth of beautiful Devonshire countryside."
  },
  {
    "name": "Llanberis Ammunitions Store",
    "lat": 53.127281,
    "lon": -4.13808,
    "description": "A disused ammunitions store built into the slate quarry outside Llanberis\n\nsome info. (http://www.urbansickness.co.uk/llanberis)"
  },
  {
    "name": "Paddock Standby Cabinet War Rooms",
    "lat": 51.913779,
    "lon": 0.06042499999999999,
    "description": "Open twice a year, once on London Open House Weekend.\n\nhttp://www.subbrit.org.uk/sb-sites/sites/p/paddock/index.shtml"
  },
  {
    "name": "Bodleian Library",
    "lat": 51.754081,
    "lon": -1.254652,
    "description": "The Bodleian Library offers occasional extended tours which include not only the amazing architecture, but also the underground stacks with sliding shelves and an amazing piece of 20th Century engineering that is still used to transport books throughout the extensive library premises.  Pre-booking essential.  See http://www.bodleian.ox.ac.uk/about/visitors/individual/extended for details."
  },
  {
    "name": "Museum of the History of Science",
    "lat": 51.738935,
    "lon": -1.253815,
    "description": "Fascinating and compact collection of scientific instrumentation and paraphernalia with some dating back many hundred of years. Admission is free too."
  },
  {
    "name": "Dunwich: a town swallowed by the sea",
    "lat": 47.635784,
    "lon": 64.6875,
    "description": "Formerly the 'Capital of East Anglia' (c. 1500) this Suffolk town was one of the most important UK sea ports. It was in the top 10 'largest places in England' and had a population of 3000. \n\nHowever, it has rapidly fallen into the sea (and continues to do so) with only a handful of houses and 120 residents remaining. Notable places to visit currently include the museum and 17th century traditional pub.\n\nIs a fascinating place to visit, so I would recommend going before it's all gone!"
  },
  {
    "name": "The Museum of Computing",
    "lat": 51.55893,
    "lon": -1.781244,
    "description": "http://www.museum-of-computing.org.uk/"
  },
  {
    "name": "Rocket Post: Harris to Scarp",
    "lat": 57.99791,
    "lon": -7.096138,
    "description": "Site of experimental postal service by rocket between Harris and Scarp; fictionalised in 2004 film http://www.imdb.com/title/tt0337708/"
  },
  {
    "name": "Techniquest",
    "lat": 51.193115,
    "lon": -2.570801,
    "description": null
  },
  {
    "name": "Hunterian Musem",
    "lat": 51.514725,
    "lon": -0.117416,
    "description": "Information for Visitors (http://www.rcseng.ac.uk/museums/information)\n\nHunterian Museum Info (http://maps.google.co.uk/maps/place?oe=utf-8&rls=org.mozilla:en-US:official&client=firefox-a&um=1&ie=UTF-8&q=hunterian+museum&fb=1&gl=uk&hq=hunterian+museum&hnear=Camden+Town&cid=16876882063523576881)"
  },
  {
    "name": "George Green's windmill",
    "lat": 52.952074,
    "lon": -1.129379,
    "description": "No offence to Sneinton, but it's not the most picturesque part of Nottingham. This makes it all the more surreal when you stumble on George Green's windmill. (http://www.nottinghamcity.gov.uk/index.aspx?articleid=1033) The famous mathematician's dad built this windmill and it's still working (plus a museum)."
  },
  {
    "name": "Clifton Observatory and caves",
    "lat": 51.450584,
    "lon": -2.27417,
    "description": "Old 18thC windmill converted out with camera obscura in 1828; beneath it lie caves that stretch down untill emerging on a viewing platform half way up the avon gorge."
  },
  {
    "name": "Placemark 95",
    "lat": 52.140231,
    "lon": -2.570801,
    "description": "A reasonable maze, but the associated museum of mazes and maze related shop make it a nerd must see."
  },
  {
    "name": "Birmingham Pen Museum",
    "lat": 52.589701,
    "lon": -5.405273,
    "description": "Birminghan pen room - find out about the history of the pen industry http://penroom.co.uk/default.aspx"
  },
  {
    "name": "Alcock & Brown landing site",
    "lat": 53.451669,
    "lon": -10.034637,
    "description": "Landing site for the first transatlantic flight by Alcock & Brown. A bog, they mistook for a meadow. lonely, isod spot, but historic.\n\nhttp://en.wikipedia.org/wiki/Transatlantic_flight_of_Alcock_and_Brown"
  },
  {
    "name": "Scott Russell Aqueduct",
    "lat": 56.072035,
    "lon": -2.373047,
    "description": "First 'sighting' of a soliton wave : http://www.ma.hw.ac.uk/solitons/press.html"
  },
  {
    "name": "Site of Marconi Station",
    "lat": 53.530513000000006,
    "lon": -9.629517,
    "description": "Marconi Station - first transatlantic point-to-point radio station, near Clifden, Connemara.\n\nhttp://en.wikipedia.org/wiki/Marconi_Station"
  },
  {
    "name": "Bristol Museum ",
    "lat": 51.45743,
    "lon": -2.081909,
    "description": "Fantastic museum and art gallery; free entry and a hoard of old Victorian stuffed animals and naturalist exhibits. It is a great place to get lost in for a few hours.\nRecently played host to Banksy's well publicised 'homecoming' exhibition."
  },
  {
    "name": "Scotland's Secret Bunker",
    "lat": 56.272336,
    "lon": -2.69989,
    "description": "http://www.secretbunker.co.uk/"
  },
  {
    "name": "Scotlands Secret Bunker",
    "lat": 56.270525,
    "lon": -2.698345,
    "description": null
  },
  {
    "name": "Faslance nuclear submarine base",
    "lat": 56.055552,
    "lon": -4.810982,
    "description": "Amazing monument to the folly of man. Weapons of Mass Destruction dipped in corrosive sea water, surrounded by security fences and armed police. Ideal location to stop by and take lots of photos - if you fancy an additional thrown in one-way trip to Guantanamo bay to round off your day!"
  },
  {
    "name": "Stockport Hat Museum",
    "lat": 53.41076000000001,
    "lon": -2.160873,
    "description": "http://www.hatworks.org.uk/"
  },
  {
    "name": "Sensation Dundee",
    "lat": 57.282012,
    "lon": -2.581787,
    "description": null
  },
  {
    "name": "Abandoned Airfield",
    "lat": 51.310282,
    "lon": -0.465417,
    "description": "Great to explore and walk around!\n\nBe quick - this site will be turned into a 17 hectare composting site in the next year or so."
  },
  {
    "name": "Seaford Museum",
    "lat": 50.767042,
    "lon": 0.103952,
    "description": "in Martello Tower No.74 aka The Tardis - what a museum ought to be like - full of all kinds of nerdy junk: old computers, old radios, all sorts...\nhttp://www.seafordmuseum.co.uk/"
  },
  {
    "name": "Puzzle Wood",
    "lat": 51.99841,
    "lon": -3.599396,
    "description": "Fantastic geographic feature. A natural fantasy woodland. Used in the Merlin TV series."
  },
  {
    "name": "The Fleet Air Arm Museum",
    "lat": 51.015125,
    "lon": -2.637325,
    "description": "http://www.fleetairarm.com/"
  },
  {
    "name": "site of ROF Bishopton - rocket propellant and ammunitions factory",
    "lat": 55.913043,
    "lon": -4.486542,
    "description": "ROF Bishopton, huge site of former military propellant and ordnance factory. Rockets, missiles, shells - you name it, made here. Lots of derelict buildings with chemical production facilities, private railtrack, firing grounds, etc.\n\nhttp://www.secretscotland.org.uk/index.php/Secrets/ROFBishopton"
  },
  {
    "name": "Laxey Wheel",
    "lat": 54.826008,
    "lon": -15.380859000000001,
    "description": "The largest working waterwheel in the world, used to pump water from the Glen Mooar part of the ‘Great Laxey Mines’ industrial complex.\nhttp://en.wikipedia.org/wiki/Laxey_Wheel"
  },
  {
    "name": "Shortest railway",
    "lat": 52.3688919,
    "lon": -7.6300053,
    "description": "This is the world's shortest standard gauge railway. It's in the middle of the Viables roundabout, Harrow Way in Basingstoke."
  },
  {
    "name": "Ashmolean Museum",
    "lat": 51.755621,
    "lon": -1.260295,
    "description": null
  },
  {
    "name": "Wainhouse Tower",
    "lat": 53.664171,
    "lon": -1.351318,
    "description": "Magnificent 19thC folly, tallest structure in Calderdale, and claimed to be the tallest folly in the world.\nhttp://en.wikipedia.org/wiki/Wainhouse_Tower"
  },
  {
    "name": "University Of Oxford Botanic Garden",
    "lat": 51.751079,
    "lon": -1.247635,
    "description": null
  },
  {
    "name": "Portavadie / Polphail",
    "lat": 55.912273,
    "lon": -5.778809,
    "description": "Deserted oil platform construction site and village - built in the 70s but never used"
  },
  {
    "name": "Electric Brae",
    "lat": 55.381158,
    "lon": -4.76017,
    "description": "One of the best known gravity hills: http://en.wikipedia.org/wiki/Electric_Brae"
  },
  {
    "name": "Paviland Cave",
    "lat": 51.549538,
    "lon": -4.255486,
    "description": "Home of the Red 'Lady' of Paviland. http://en.wikipedia.org/wiki/Red_Lady_of_Paviland"
  },
  {
    "name": "Tunnel Road & Barons Caves",
    "lat": 51.795027,
    "lon": -9.536133,
    "description": "http://www.wcms.org.uk/pages/club/reigate_caves.shtml\nOpen annually for a few Saturdays (see URL for dates). Interesting former sand mines which have had many uses (known and unknown) over the years."
  },
  {
    "name": "Tees Transporter Bridge",
    "lat": 54.584797,
    "lon": -1.2332150000000002,
    "description": "Awesomeness: http://en.wikipedia.org/wiki/Middlesbrough_Transporter_Bridge"
  },
  {
    "name": "Birr Castle - Telescope",
    "lat": 31.052934,
    "lon": -83.671875,
    "description": "World's largest telescope (in the 1840s) where spiral galaxies first discovered. Visitor centre.\n\nhttp://www.birrcastle.com/the-great-telescope-birr-castle.php"
  },
  {
    "name": "WWII resistance communications centre",
    "lat": 52.655561,
    "lon": -1.240082,
    "description": "During WW2 plans were established to support the resistance movement if we were ever invaded. The tailor's shop (as it was) on Smedley Street was a front for being the communications hub for the area. A blue plaque commemorates this."
  },
  {
    "name": "Exhibition on the History of the Lawnmower",
    "lat": 50.384005,
    "lon": -5.039978,
    "description": "At Trerice, a National Trust property.\nhttp://www.nationaltrust.org.uk/main/w-trerice"
  },
  {
    "name": "The Silk Mill - England's First Factory",
    "lat": 52.882391,
    "lon": -1.450195,
    "description": "The Silk Mill was England's first factory built here in 1717."
  },
  {
    "name": "Ossuary in Kent",
    "lat": 51.070743,
    "lon": 1.0807800000000003,
    "description": "One of two in the whole of UK. \nhttp://www.stleonardschurchhythekent.org/History/HouseofBones.html"
  },
  {
    "name": "Statue of Bonnie Prince Charlie",
    "lat": 53.03791,
    "lon": -2.444458,
    "description": "Charles Edward Louis John Casimir Silvester Severino Maria Stuart marched from the highlands down through England with the intent of retaking the throne. He made it as far as Derbyshire before giving up and turning back. This is allegedly the only statue of Bonnie Prince Charlie to exist."
  },
  {
    "name": "Rollright stones",
    "lat": 52.48278,
    "lon": -3.120117,
    "description": "A small stone circle (The Kingsmen), the King Stone and a neolithic burial chamber. http://www.rollrightstones.co.uk"
  },
  {
    "name": "RAF Menwith Hill",
    "lat": 54.673831,
    "lon": -83.847656,
    "description": "British and US Listening Station. Magnificent view of multiple radomes. http://en.wikipedia.org/wiki/RAF_Menwith_Hill"
  },
  {
    "name": "Ironbridge ",
    "lat": 52.333661,
    "lon": -2.546082,
    "description": "Designed by Abraham Darby.  The world's first iron bridge.  Built using carpentry techniques. Located in the birthplace of the industrial revolution."
  },
  {
    "name": "Derby Arboretum",
    "lat": 52.943673,
    "lon": -1.481781,
    "description": "The first public park in England. The landscaping was influential on the design of Central Park in New York some years later."
  },
  {
    "name": "Amberley Museum",
    "lat": 50.898107,
    "lon": -0.539703,
    "description": "Lots of random little museums rolled into one site."
  },
  {
    "name": "Diggerland",
    "lat": 54.699234,
    "lon": -6.064453,
    "description": "Unique cross of family theme park and plant hire. Damn good fun with JCBs. http://www.diggerland.com/"
  },
  {
    "name": "The Nine Ladies",
    "lat": 53.202742,
    "lon": -1.131592,
    "description": "The Nine Ladies (and lone fiddler!) is a stone circle, one of a number in the area. Recently restored."
  },
  {
    "name": "Abbey Mills pumping station",
    "lat": 51.530373,
    "lon": -0.001287,
    "description": "Victorian sewerage pumping station, nicknamed the \"Cathedral Of Sewage\""
  },
  {
    "name": "The Museum of Electricity",
    "lat": 50.736455,
    "lon": -1.763306,
    "description": "Various history of electricity stuff. Had a mercury arc rectifier on display but not turned on and working (that I can remember...)."
  },
  {
    "name": "Stockport Viaduct",
    "lat": 53.409327,
    "lon": -2.16465,
    "description": "The railway line between Stockport and Manchester passes over the supposed largest brick structure in Europe.\n\nhttp://en.wikipedia.org/wiki/Stockport_Viaduct\n\nNewspaper articles about it from the time line the corridor to the toilets in the nearby Crown Inn."
  },
  {
    "name": "St Fagans Museum of Welsh Life",
    "lat": 51.486714,
    "lon": -3.273282,
    "description": "Not particularly nerdy (and I think Wales' #1 tourist attraction), but a great day out all the same. Wears out the kids too as it is quite a big site and there's a lot to see. It's mostly historic buildings transported brick by brick from all over Wales and reconstructed using historical methods. Bilingual experts are also found lurking around the place who can tell you all you need to know.\nhttp://www.museumwales.ac.uk/en/stfagans/"
  },
  {
    "name": "Norfolk and Suffolk Aviation Museum",
    "lat": 52.434953,
    "lon": 1.399598,
    "description": "A small aviation museum with Static displays. http://www.aviationmuseum.net/\nHandily close to St Peter's Brewery (although not walking distance) for good beer and fine dining in the restaurant."
  },
  {
    "name": "DMA Design Office",
    "lat": 56.46856,
    "lon": -2.977295,
    "description": "In 1991, this was where DMA Design created the computer game Lemmings. Within DMA it was ultimately to be known as the \"Old Old Office\""
  },
  {
    "name": "Science Oxford",
    "lat": 51.751135,
    "lon": -1.238577,
    "description": "Hands on science for nerdy kids (and their nerdy carers)."
  },
  {
    "name": "St Peter's Brewery",
    "lat": 52.968492,
    "lon": -0.53833,
    "description": "Not sure if they still do the brewery tour, but they have a visitors shop and a restaurant.\nhttp://www.stpetersbrewery.co.uk/"
  },
  {
    "name": "DMA Design Office",
    "lat": 54.72462,
    "lon": -1.933594,
    "description": "This was the last office of DMA Design and where the original Grand Theft Auto was created."
  },
  {
    "name": "Visit the set of British TV show The Prisoner",
    "lat": 52.914207,
    "lon": -4.097986,
    "description": "Go check out the little village where the cult 60s British TV show was filmed."
  },
  {
    "name": "Cumberland pencil museum",
    "lat": 56.734649,
    "lon": -2.999268,
    "description": "http://www.pencilmuseum.co.uk"
  },
  {
    "name": "Abandoned paper factory with its own railway station",
    "lat": 51.857862,
    "lon": -2.603803,
    "description": "A huge series of factory buildings and warehouses in a pleasant state of decay...."
  },
  {
    "name": "Abandoned railway tunnel - Forest of Dean",
    "lat": 51.85651,
    "lon": -2.600842,
    "description": "An old railway tunnel that I first explored with only a mobile phone light for guidance! About 3/4 of a mile long and can be exited at the other end  to create a circular walk coming back on an oxbow in the wye to the east. The old railway bridge is pretty good as well AND the small church to the east of the tunnel entrance....Enjoy!"
  },
  {
    "name": "RAF Museum Hendon",
    "lat": 51.598187,
    "lon": -0.24084100000000003,
    "description": "Military aircraft from through WWI to the present day."
  },
  {
    "name": "Western Approaches Museum",
    "lat": 53.407594,
    "lon": -2.993388,
    "description": "Operations room for the Battle of the Atlantic"
  },
  {
    "name": "Valve House",
    "lat": 53.422628,
    "lon": 1.263428,
    "description": "The valve here controlled the water flow from the reservoir to supply the Cromford Canal. The Butterley tunnel that runs under the reservoir was once the third longest canal tunnel in the world."
  },
  {
    "name": "Harlech Dome",
    "lat": 54.819679,
    "lon": -5.789795,
    "description": "Guide book to geology of the Harlech dome available from the British Geological Survey Bookshop. Worth a whole weekend!\nhttp://shop.bgs.ac.uk/Bookshop/product.cfm?p_id=CABG00"
  },
  {
    "name": "WW2 Anti-Aircraft Battery",
    "lat": 55.804368,
    "lon": -2.7740480000000005,
    "description": "Decayed concrete, rusting metal, cottaging graffiti: atmospheric remains of a large AA Battery that protected Glasgow from bombing during WW2\n\n \nSome directions and notes (http://www.secretscotland.org.uk/index.php/Secrets/AABatteryBlantyreferme)"
  },
  {
    "name": "Collectors World",
    "lat": 51.672555,
    "lon": -3.55957,
    "description": "With rooms dedicated to Lord Nelson, Dickens, the 1960s and Dame Barbara Cartland, the unexpected is around every corner at the Collectors World of Eric St John Foti.\n\nThis museum with a difference is just outside the town of Downham Market in Norfolk. \n\nEric St John Foti has packed a remarkable amount into his 75 years. He has been a lawyer, an actor, an inventor and a hat designer, but collecting is his passion.\n\nA life's work \n\n\nEric St John Foti \n\"Collecting shouldn't just be a question of amassing different objects,\" Eric enthused. \n\n\"Everything you see here is part of my life, or has been part of my life. I have never thrown anything away, and it shows of course!\" \n\nThe Nelson Room looks at the life of the Norfolk-born hero who went to school in Downham Market.\n\nFor the more romantic visitor the Pink Room houses the world's largest collection of Barbara Cartland memorabilia. \n\nEric never threw away his old television sets, radios or LPs - so he turned the whole lot into a 60s room that includes a special tribute to Freddie and the Dreamers.\n\nSatisfied visitors\n\n\nThe Pink Room: click to see video \nAs well as housing the only Armstrong Siddeley Car Museum open to the public, this must be the only museum where an old Concorde engine is under the same roof as a room dedicated to the actress Liza Goddard. \n\nEric says the public are invariably amazed by the displays: \n\n\"They all say, 'why haven't we heard about it before', and the great joy to me is of course that they say they loved it and they come back over and over again!\" \n\nVisit The Collectors World of Eric St John Foti at: Hermitage Hall, Downham Market, \nNorfolk, PE38 0AU\nt: 01366 383185"
  },
  {
    "name": "St Peter's Seminary",
    "lat": 55.970208,
    "lon": -4.640393,
    "description": "Awesome deserted seminary -- designed by seminal 1960s concrete-and-wood architects Gillespie, Kidd and Coia"
  },
  {
    "name": "Millclose Mine",
    "lat": 53.186288,
    "lon": -1.219482,
    "description": "Once one of the most productive lead mines ever (plus zinc ore as well), the remains of the pump-house still remain, and the capped shaft of the mine that runs to 300m deep."
  },
  {
    "name": "Awesome Victorian toilets",
    "lat": 55.841398,
    "lon": -5.053711,
    "description": "Huge gentleman's urinals, gleaming brass, cut glass cisterns, ladies allowed in too!"
  },
  {
    "name": "The Three Ships and Nelson's Monument",
    "lat": 53.219191,
    "lon": -0.06591800000000002,
    "description": "Three large boulders with inscriptions  and a monument to Nelson."
  },
  {
    "name": "The Purton Hulks",
    "lat": 52.522906,
    "lon": -1.450195,
    "description": "A 'graveyard' of barges beached to shore up the banks of the Gloucester and Sharpness Canal (http://en.wikipedia.org/wiki/Gloucester_and_Sharpness_Canal) alongside the river Severn."
  },
  {
    "name": "Hack Green Secret Nuclear Bunker",
    "lat": 55.96765,
    "lon": -4.21875,
    "description": "Regional Centre of Government bunker into the 1980s. Creepy. Shows The War Game on a loop in one room.\n\nhttp://www.hackgreen.co.uk/"
  },
  {
    "name": "Farnborough Air Sciences Trust",
    "lat": 52.442618,
    "lon": -2.526855,
    "description": "http://www.airsciences.org.uk/\n\nWith lovely views over the airfield to boot!\n\n85 Farnborough Road, Farnborough, Hants, GU14 6TF"
  },
  {
    "name": "The Stewartry Museum, Kirkcudbright",
    "lat": 54.933454,
    "lon": -5.83374,
    "description": "Jammed, slightly loopy, one-room museum of everything that ever passed through town."
  },
  {
    "name": "Mullard Radio Astronomy Observatory",
    "lat": 52.912215,
    "lon": 0.142822,
    "description": null
  },
  {
    "name": "Goonhilly Earth Station",
    "lat": 38.822591,
    "lon": -40.253906,
    "description": null
  },
  {
    "name": "The Gordon Museum",
    "lat": 51.50511,
    "lon": -0.077591,
    "description": "King's College London's best-kept secret, a lovely old pathology museum with the smell of formalin and old wood, and collections ranging from Joseph Towne's anatomical models to an impressive selection of brains in jars. If you've ever wanted to visit a museum with an Infanticide Corner this is probably your only opportunity, but take note: gawpers are not welcome and the museum is only open to staff and students of King's College London and \"medical public\" by appointment:\n\nHodgkin House, Guy's Campus, King's College London, St. Thomas's Street, London SE1 9RT.\n\nhttp://www.kcl.ac.uk/teares/gktvc/vc/gordon/"
  },
  {
    "name": "Berliner Medizinhistorisches Museum der Charité",
    "lat": 52.683043,
    "lon": 13.051758,
    "description": "Berlin's largest teaching hospital also has an excellent medical history museum. The museum houses an extensive spirit collection alongside exhibits on the medical treatments the hospital has developed over three centuries. Refreshingly it is open to the general public.\n\nCampus Charité Mitte\nCharitéplatz 1 (ehemals Schumannstr. 20/21)\n10117 Berlin\n\nhttp://www.bmm.charite.de/"
  },
  {
    "name": "Beacon Solar Observatory",
    "lat": 52.875761,
    "lon": -2.999268,
    "description": "http://www.beaconthemes.com/CHS/\nNo visitor centre, just a rock with a hole in it.\nGR NZ046986 on your OS map, so somewhere round here..."
  },
  {
    "name": "Museum für Naturkunde",
    "lat": 52.529962,
    "lon": 13.379363,
    "description": "Berlin's natural history museum has an archaeopteryx! And some massive dinosaurs! And a German version of Powers of Ten projected onto the ceiling, which you can watch while lying on a big circular sofa! Best of all it has a beautifully-lit spirit collection:\n\nMuseum für Naturkunde, Invalidenstr. 43,\n10115 Berlin\n\nhttp://www.naturkundemuseum-berlin.de/"
  },
  {
    "name": "St George's Field",
    "lat": 53.808571,
    "lon": -1.556593,
    "description": "This beautiful cemetery-park is concealed behind high walls in the middle of Leeds.  Well-kept secret."
  },
  {
    "name": "Leeds Nuclear Bunker",
    "lat": 53.87591,
    "lon": -1.664085,
    "description": null
  },
  {
    "name": "The Old Operating Theatre Museum and Herb Garret",
    "lat": 51.504986,
    "lon": -0.088685,
    "description": "Does exactly what it says on the tin:\n\n9a St. Thomas St, London SE1 9RY\n\nhttp://www.thegarret.org.uk/"
  },
  {
    "name": "Royal Observatory Greenwich",
    "lat": 51.477106,
    "lon": 0.000687,
    "description": "Free museum plus the fun of jumping up and down on the Greenwich Meridian."
  },
  {
    "name": "Nash Point Lighthouse",
    "lat": 51.433464,
    "lon": -3.526611,
    "description": "Great foghorn, which they set off every now and again for the visitors.  Beautiful rocky beach and cliffs, lots of fossils.  Oh, and a Doctor Who location"
  },
  {
    "name": "Dublinia and The Viking World",
    "lat": 53.337433,
    "lon": -6.306152,
    "description": null
  },
  {
    "name": "Armagh Planetarium",
    "lat": 54.287675,
    "lon": -6.586304,
    "description": null
  },
  {
    "name": "Mulberry Harbour",
    "lat": 50.980475,
    "lon": 0.979586,
    "description": "World war II concrete, floating harbour piece that got stuck before being towed to the French coast."
  },
  {
    "name": "British Engineerium",
    "lat": 50.837167,
    "lon": -0.214233,
    "description": "The Engineerium has a unique collection of steam driven engines, many of them from the Victorian era. Unfortunately now the Engineerium is closed except on special Steam Days whilst full restoration works are taking place.\n\nThe British Engineerium\nOff Nevill Road\nHove\nEast Sussex BN3 7QA"
  },
  {
    "name": "Grave of James Prescott Joule",
    "lat": 53.465161,
    "lon": -2.005005,
    "description": "Joule died at home in Sale and is buried in Brooklands cemetery there. The gravestone is inscribed with the number \"772.55\", his climacteric 1878 measurement of the mechanical equivalent of heat, and with a quotation from the Gospel of John, \"I must work the works of him that sent me, while it is day: the night cometh, when no man can work\" (9:4). (from wikipedia (http://en.wikipedia.org/wiki/James_Prescott_Joule))"
  },
  {
    "name": "Milestones museum",
    "lat": 50.429518,
    "lon": -4.284668,
    "description": "After you've visited the shortest railway, cross the town to visit Milestones Living History museum http://www.hants.gov.uk/milestones"
  },
  {
    "name": "Deutsches Museum",
    "lat": 32.602362,
    "lon": 55.634766,
    "description": "Museum of technical and scientific artifacts, includes some fine examples of early computers, a camera obscura and a myriad of other instruments."
  },
  {
    "name": "Centre of the Cell",
    "lat": 51.512161,
    "lon": -0.053558,
    "description": "Working research laboratory with visitors' centre. The lab's nerdtastic design incorporates meeting rooms and furniture shaped like cells and organelles:\n\nBlizard Building, 4 Newark Street, Whitechapel, London E12 AT\n\nhttp://www.centreofthecell.org/"
  },
  {
    "name": "The Needles Battery",
    "lat": 51.536086,
    "lon": -2.062683,
    "description": "The Battery is an old costal defence, built in the 1800s, which was used as part of Britain's space program to test the Black Knight and Black Arrow rockets from 1956–71 \n\nhttp://www.theneedlesbattery.org.uk/"
  },
  {
    "name": "HSS Observatory",
    "lat": 55.329144,
    "lon": -2.15332,
    "description": "Opening season: Normally Mid Sept - Mid-April, but we do vary this from year to year depending on the position & visibility of the bright planets. We will also occasionally open 'out of season' to cover such events as eclipses, transits and the unexpected arrival of bright comets.\n\nOpening times: 8-10pm Friday and Saturday nights. 11am-1pm Sunday.\n\nhttp://www.hampsteadscience.ac.uk/astro/observatory.html"
  },
  {
    "name": "Snuff Mills",
    "lat": 51.467697,
    "lon": -2.180786,
    "description": "Beautifully cared for by local conservation group. Walk along the River Frome as followed by Cromwell and his troops. Follow the river up to Oldbury Court or down into Bristol City Centre. If you are lucky you'll spot a kingfisher!"
  },
  {
    "name": "Foredown Tower",
    "lat": 51.672555,
    "lon": -1.790771,
    "description": "A camera obscura in a former water tower. \n\nForedown Rd\nPortslade, Brighton\nEast Sussex \nBN41 2EW \nUnited Kingdom\n01273 292 092"
  },
  {
    "name": "The Manchester Museum",
    "lat": 53.466183,
    "lon": -2.234559,
    "description": "Good if you like taxidermy, and who doesnt?\n\nThe University of Manchester, Oxford Road, Manchester M13 9PL\n\nhttp://www.museum.manchester.ac.uk/"
  },
  {
    "name": "RAF Air Defence Radar Museum",
    "lat": 52.713523,
    "lon": 1.469851,
    "description": "This amazing and tardis like museum is run by volunteers, many of whom are former airmen with great stories to tell. \nTry your hand at backward writing for the ops room, and learn how to use the strings and weights on a triangulation table to figure out how far away your planes."
  },
  {
    "name": "Yorkshire Air Museum",
    "lat": 52.656394,
    "lon": 1.186523,
    "description": null
  },
  {
    "name": "Barometer world",
    "lat": 47.783635,
    "lon": -23.422852,
    "description": "Sales, restoration, antiques, spare Parts - and to cap it all a museum! Just what the atmospheric pressure nerd in your life needs."
  },
  {
    "name": "British Museum Station",
    "lat": 51.516968,
    "lon": -0.12308100000000001,
    "description": "Central Line Tube station situated between Holborn and Tottenham Court Road. No longer in use but still visible if you look hard enough out of the window..."
  },
  {
    "name": "Nottingham Transport Heritage Centre",
    "lat": 52.908902,
    "lon": -1.159058,
    "description": "big trains, little trains, mini trains, http://en.wikipedia.org/wiki/Nottingham_Transport_Heritage_Centre"
  },
  {
    "name": "Cresswell Crags - Earliest British Cave Art",
    "lat": 53.261927,
    "lon": -1.18927,
    "description": "Cave art from nearly 13,000 years ago, the only cave art from that period in the UK."
  },
  {
    "name": "Imber",
    "lat": 51.235993,
    "lon": -2.051525,
    "description": "Suggested by @irregularshed. Village pinched from the villagers by the MoD in 1943 for training and never given back. Access is occasional (a few days a year)."
  },
  {
    "name": "Convex Weir",
    "lat": 53.268498,
    "lon": -2.48291,
    "description": "One of only three convex weirs in the UK."
  },
  {
    "name": "Belshaw's Quarry Nature Reserve",
    "lat": 54.537132,
    "lon": -6.101897,
    "description": "An abandoned quarry full of limestone wonders! http://www.doeni.gov.uk/niea/nature_reserves/nature_reserves_belshaw.shtml"
  },
  {
    "name": "The Semiconductor Archives",
    "lat": 51.529679,
    "lon": 0.00618,
    "description": "Very very very specialist shop- allegedly. No-one ever seems to go in or come out:\n\nhttp://www.flickr.com/photos/55935853@N00/2980028351/"
  },
  {
    "name": "Bovington Tank Museum",
    "lat": 50.889174,
    "lon": -1.675415,
    "description": "It's a museum FULL OF TANKS. Not much more to say. @irregularshed went there 30 years ago and loved it."
  },
  {
    "name": "Crich Stand War Memorial",
    "lat": 54.895565,
    "lon": -1.142578,
    "description": "A tower has stood here for over 300 years, the current one being built in 1849. Unusual for having a 'lighthouse' beacon that shines at night."
  },
  {
    "name": "Royal Observer Corps Museum, Newhaven Fort",
    "lat": 50.781629,
    "lon": 0.052185,
    "description": "View a reconstruction of an underground monitoring post, which would have been staffed by volunteers from the ROC at the time of a nuclear attack. This museum gives a first-hand account of the ROC's responsibility during the 'transition to war' as it has been lovingly put together by members of the ROC Association. Includes telecoms for early warning messages, bomb power indicators, vertical Perspex maps for tracing the spread of nuclear plumes and tins of jam and corned beef hash to be eaten by survivors."
  },
  {
    "name": "porthgain abandoned narrow guage mining railway",
    "lat": 51.949756,
    "lon": -5.190688,
    "description": "Abandoned mining railway on dramatic coastline, goes right up to the cliffs, plus you can end up with very good fish and chips at Porthgain.\n\n\nhttp://www.bbc.co.uk/wales/southwest/nature/thingstodo/walks/allwalks/porthgain_abereiddi.shtml"
  },
  {
    "name": "Guy's Cliffe House",
    "lat": 69.099939,
    "lon": -179.824217,
    "description": "Ruined ancient house that burnt down. Dramatic views from The Saxon Mill pub (which really is a working Mill, with water wheel and mill pond)"
  },
  {
    "name": "Galloway Dark Sky Reserve",
    "lat": 55.062641,
    "lon": -4.42749,
    "description": "Nothing, just the vastness of space above you. One of the first world dark sky parks chosen for their absence of artificial light and their clear views of the Milky Way and beyond."
  },
  {
    "name": "Aquarium, Fish Freezing plant and Fish restaurant",
    "lat": 55.17886800000001,
    "lon": -24.433594,
    "description": "An imaginative multi-function approach. What they don't freeze or fry you can watch swimming around in big tanks. Great collection of 'exotic' species such as haddock.\n\nhttp://www.dingle-oceanworld.ie/"
  },
  {
    "name": "Carpetbagger Aviation Museum",
    "lat": 52.403377,
    "lon": -0.87317,
    "description": "http://www.harringtonmuseum.org.uk/WhatWeAre.htm"
  },
  {
    "name": "53.272778, -8.038889",
    "lat": 53.272778,
    "lon": -8.038889,
    "description": "+53° 16' 22.00\", -8° 2' 20.00\""
  },
  {
    "name": "Peat Fired Power Station",
    "lat": 53.272784,
    "lon": -8.038945,
    "description": "One of the largest Peat fired power stations in the world. See the nearby land stripped for miles, with methane emissions warming the planet as this power station and its ilk make use of our 'natural resources'."
  },
  {
    "name": "Cork Butter Museum",
    "lat": 51.902746,
    "lon": -8.476714,
    "description": "World's largest butter market and museum telling the complete story of butter."
  },
  {
    "name": "Thwaite Mills",
    "lat": 53.776122,
    "lon": -1.504054,
    "description": "Watermill Museum.\n \nhttp://www.leeds.gov.uk/thwaitemills/Thwaite_Mills/About_Thwaite.aspx"
  },
  {
    "name": "Bell Labs, Murray, Hill New Jersey",
    "lat": 40.178873,
    "lon": -74.53125,
    "description": "Museum showing Bell Labs inventions, including the first transistor from 1948"
  },
  {
    "name": "Mells Iron Works",
    "lat": 51.237578000000006,
    "lon": -2.376738,
    "description": "Great old ironworks sites; abandoned houses and small factory buildings in narrow gorge with quaint stream - Great local geology stuff too... (see BGS)\n\nAlso bats.\n\nhttp://www.bgs.ac.uk/mendips/localities/mells.html"
  },
  {
    "name": "Porthcurno Telegraphy Museum",
    "lat": 50.042975,
    "lon": -5.651865,
    "description": "A museum about the history of telegraphy at the site where the cables came onto shore."
  },
  {
    "name": "Midland Railway Centre",
    "lat": 53.063346,
    "lon": -1.401315,
    "description": "Heritage railway line and centre, runs from Hammersmith to Ironville. Bridge runs over the reservoir, which is over the canal!"
  },
  {
    "name": "Murray Star Maze",
    "lat": 56.421308,
    "lon": -3.433367,
    "description": "Glorious pentagonal maze with tartan hedge pattern. Accompanying palace of Scone features albino peacocks and a collection of historic papier-maché vases."
  },
  {
    "name": "The Hut of Shadows, Lochmaddy, North Uist.",
    "lat": 57.610038,
    "lon": -7.153752,
    "description": "Hand-built stone and turf camera obscura on the lochside. Access by foot over suspension bridge.\nhttp://www.geograph.org.uk/photo/1438241"
  },
  {
    "name": "Nikola Tesla Museum",
    "lat": 44.804463,
    "lon": 20.471735,
    "description": "Knowledgeable guides give you a half hour tour of a museum dedicated to the man who invented the 20th century. Includes a great demonstration of how Tesla used wireless electricity to light up a light bulb (this is the closest you will come to handling a light sabre)."
  },
  {
    "name": "Devil's Porridge Exhibition",
    "lat": 54.985603,
    "lon": -3.175993,
    "description": "This amazing exhibition tells the story of the Greatest Munitions Factory on earth that was constructed on the Anglo-Scottish Border between Dornock in Scotland and Longtown in England.\n\nhttp://devilsporridge.co.uk/"
  },
  {
    "name": "Belgrade Museum of Science & Technology",
    "lat": 44.821817,
    "lon": 20.465212,
    "description": "Eclectic collection of technological artifacts ranging from old bicycles to film projectors and from anchors to 1960s computers. Minimal labeling but great for spending a couple hours wallowing in the nerdiness of it all."
  },
  {
    "name": "Second Highest Sand Dunes in Europe",
    "lat": 51.47994,
    "lon": -3.6407229999999995,
    "description": "Interesting sand dunes, the second highest in Europe apparently, with natural fresh-water springs coming from a perched limestone aquifer."
  },
  {
    "name": "Historical Blast Furnace",
    "lat": 53.038617,
    "lon": -1.434754,
    "description": "Rare example of early blast furnace."
  },
  {
    "name": "Heage Windmill",
    "lat": 53.056261,
    "lon": -1.448334,
    "description": "Working windmill."
  },
  {
    "name": "Remains of windmill destroyed by Luddites",
    "lat": 53.075473,
    "lon": -1.456759,
    "description": null
  },
  {
    "name": "Anchor Church",
    "lat": 52.841554,
    "lon": -1.497885,
    "description": "A series of sandstone caves that have been carved into the rock. http://en.wikipedia.org/wiki/Anchor_Church"
  },
  {
    "name": "Catalyst",
    "lat": 53.351806,
    "lon": -2.733685,
    "description": null
  },
  {
    "name": "Chislehurst Caves",
    "lat": 51.407155,
    "lon": 0.056924999999999996,
    "description": "Huge network of tunnels used as an air raid shelter in WWII, entertainingly cheesy tours, great fun. Entertainingly cheesy website too:\nhttp://www.chislehurst-caves.co.uk/"
  },
  {
    "name": "Mulberry Harbour Segment",
    "lat": 50.571055,
    "lon": -2.4429130000000003,
    "description": "Another bit of bonus concrete."
  },
  {
    "name": "North Gare",
    "lat": 54.636219,
    "lon": -1.170173,
    "description": "A spectacular combination of nature and industry. Plenty of wild life and industry on a scale that is jaw dropping. It manages to be desolate and beautiful all in one go. You might see a few kite surfers off the beach."
  },
  {
    "name": "Dorset Cursus",
    "lat": 50.943259,
    "lon": -1.974621,
    "description": "10km long neolithic earthwork, this area is Longbarrow Central:\n\nhttp://www.megalithic.co.uk/article.php?sid=1377"
  },
  {
    "name": "Museum Vrolik",
    "lat": 52.294754,
    "lon": 4.959769,
    "description": "Pathology museum mentioned rather a lot in Armand Marie Leroi's 'Mutants'.\n\nFaculty of Medicine, Academic Medical Center (AMC), Meibergdreef 15, 1105 AZ Amsterdam\n\nhttp://www.english.uva.nl/about_the_uva/object.cfm/5A9B26F2-4650-4F28-9C25AEACA84713A0"
  },
  {
    "name": "Severn Bore",
    "lat": 51.842141,
    "lon": -2.354507,
    "description": "The world's second largest tidal bore - a single wave that rushes up the river when the tidal conditions are right.  Check timetables online, and go for 4-star or 5-star (for 5-start, preferably late evening or early morning, when there'll be fewer people)"
  },
  {
    "name": "The Monument",
    "lat": 51.51012,
    "lon": -0.085972,
    "description": "This famous memorial of the Great Fire of London is nerdy because it doubles up as a huge scientific instrument.  The central shaft is a zenith telescope and connects to an underground laboratory, and the steps are precise measurements to aid in barometric pressure studies."
  },
  {
    "name": "Armley Mills Industrial Museum",
    "lat": 53.801741,
    "lon": -1.58143,
    "description": "Oh so many bits of old machinery to coo over.  Not much of it works/runs any more, but still you've got to love a lathe.\n\nhttp://www.leeds.gov.uk/armleymills/"
  },
  {
    "name": "Schiehallion",
    "lat": 56.665661,
    "lon": -4.091721,
    "description": "A fantastic easy hill walk with spectacular views.  Nerdy significance: a groundbreaking 1774 experiment to estimate Newton's Gravitational constant G by measuring the deflection of a pendulum by the mass of the mountain to provide an estimate of the mean density of the Earth.  There's some signage near the bottom about the experiment."
  },
  {
    "name": "Eyam plague village",
    "lat": 53.28328,
    "lon": -1.671467,
    "description": "Village which voluntarily quarantined itself during the Great Plague (1665).  Records of deaths during this period have given rise to useful epidemiological data regarding plague, and genetic studies of current inhabitants show a gene mutation (\"Delta 32\") hypothesised to arise from differential survival rates and hypothesised to offer some protection against HIV/AIDS.\n\nThere is a small, volunteer-run and nerdy / odd museum in the village."
  },
  {
    "name": "Five Rise Locks",
    "lat": 53.856159,
    "lon": -1.8379350000000003,
    "description": "Five Rise Locks - Canal walk/bike ride with a cafe at the top, bonus :) http://www.bingley.org.uk/around/locks.htm\n\n(you might want to push your bike up, and coming down could be hairy for those at the bottom)"
  },
  {
    "name": "Thackray Medical Museum",
    "lat": 53.808114,
    "lon": -1.518517,
    "description": "Thackray medical museum: http://www.thackraymuseum.org/\n\nOne review on google says it was too gory, strangely this was a criticism."
  },
  {
    "name": "Mills Observatory",
    "lat": 56.464924,
    "lon": -3.012511,
    "description": "Britain's only full time public astronomical observatory.  Built in 1935 for the express purpose of promoting the public's undertsanding of science.\n\nMills Observatory (http://en.wikipedia.org/wiki/Mills_observatory)"
  },
  {
    "name": "Braefoot Point",
    "lat": 56.036812,
    "lon": -3.319677,
    "description": "World War I Coastal Battery (http://www.scotlandsplaces.gov.uk/search_item/index.php?service=RCAHMS&id=50887), with a nice view of the the oil terminal.  Some photos (http://www.flickr.com/photos/59694745@N03/sets/72157626294276132/)."
  },
  {
    "name": "Winspit Quarry",
    "lat": 50.584163000000004,
    "lon": -2.034359,
    "description": "Filming location for Doctor Who, Blake's 7, etc. Interesting for geology nerds as well. Watch out for crumbling rocks especially after heavy rain."
  },
  {
    "name": "St. Aldhelm's(Alban's?) Head",
    "lat": 50.58013,
    "lon": -2.055044,
    "description": "Old Norman chapel, memorial to the development of radar, Coastguard station, who are happy to explain their work to passing visitors."
  },
  {
    "name": "Tyneham",
    "lat": 50.622786,
    "lon": -2.168341,
    "description": "\"Ghost\" village in the middle of military firing ranges. Slowly turning into a museum with many information plaques etc. Open during Range Open Days (mostly weekends and during the summer)."
  },
  {
    "name": "Crossness Pumping Station",
    "lat": 51.509036,
    "lon": 0.138928,
    "description": "Amazing Victorian pumping station, home to the largest rotative (and working!) beam engines in the world.\n\nCurrently closed for restoration, due to re-open in 2011.\n\nhttp://www.crossness.org.uk/"
  },
  {
    "name": "Gas Museum",
    "lat": 52.616496,
    "lon": -1.141854,
    "description": "http://www.gasmuseum.co.uk/"
  },
  {
    "name": "Alan Turing Memorial",
    "lat": 53.476621,
    "lon": -2.236168,
    "description": "A statue memorialising mathematician, groundbreaking computer scientist, wartime Enigma cryptanalyst and persecuted homosexual Alan Turing.  Cast in bronze, and seated in the very pleasant Sackville Street Gardens"
  },
  {
    "name": "Chislehurst Caves",
    "lat": 51.407358,
    "lon": 0.057142,
    "description": "An ancient labyrinth of man-made tunnels covering over 6 hectares. Originally quarried for chalk and flint, they have since been a munitions dump and one of London's biggest deep air raid shelters - housing over 15,000 people during the Blitz. Guided tours only.\n\nhttp://www.chislehurst-caves.co.uk/"
  },
  {
    "name": "Intech Science Centre",
    "lat": 51.062113,
    "lon": -1.266174,
    "description": "An excellent science centre with a planetarium. There are usually at least a couple of different shows in the planetarium each day."
  },
  {
    "name": "Remains of a WW2 Radar Station",
    "lat": 60.817992,
    "lon": -0.793591,
    "description": "Remains of a 'Chain Home' Radar station. There are bunkers still standing, the ruins of the engine house, and foundations for other buildings and the radar towers. Unst Heritage Centre has info about the site."
  },
  {
    "name": "Worlds Tallest hedge",
    "lat": 56.531755000000004,
    "lon": -3.36422,
    "description": "More of a Nerdy half hour but pretty incredible none the less. More than 30 metres tall and 500m long.\nhttp://www.bonsai4me.com/AdvTech/ATBeechHedgeMeikleour.htm"
  },
  {
    "name": "Neptune's Staircase",
    "lat": 56.844536,
    "lon": -5.096154000000001,
    "description": "Thomas Telford's amazing series of 8 locks raises boats 70 feet above sea level across 500 yards. Excellent views of Ben Nevis thrown in as an added bonus."
  },
  {
    "name": "Museum of Transport Greater Manchester",
    "lat": 53.502949,
    "lon": -2.233722,
    "description": "Buses, Trams, what's not to like.\nhttp://www.gmts.co.uk/"
  },
  {
    "name": "Bovington Tank Museum",
    "lat": 50.695153,
    "lon": -2.2434,
    "description": "Fantastic tank museum, as in Military tanks, not fishtanks, watch out for the yearly Tankfest when they get the lot out, sometimes including the only remaining working Tiger tank.  Open during the week and offers rides on tracked vehicles and some great indoor exhibits."
  },
  {
    "name": "Scapa Flow Vistor Centre and Naval Museum",
    "lat": 58.833603000000004,
    "lon": -3.195477,
    "description": "Lots of interesting WW2 naval stuff - they even have anti-submarine netting in the car park. \nhttp://www.scapaflow.co.uk/sfvc.htm\n\nLots of WW2 remains still making up the harbour too."
  },
  {
    "name": "Gladstone's Library",
    "lat": 53.185939,
    "lon": -3.027126,
    "description": null
  },
  {
    "name": "Remains of a WW2 radar station",
    "lat": 60.817971,
    "lon": -0.793376,
    "description": "A 'Chain Home' Station, with surviving bunkers and foundation of other buildings and radar towers. More info can be found from the Unst Heritage Centre."
  },
  {
    "name": "Museum of Science and Industry",
    "lat": 53.477026,
    "lon": -2.254279,
    "description": "Lots of functioning steam engines in the Power Hall.\nhttp://www.mosi.org.uk/"
  },
  {
    "name": "Royal Mills",
    "lat": 53.483532,
    "lon": -2.226759,
    "description": "Walk around these mills in Ancoats and you understand what the Prussian architect Friedrich Karl Schinkel felt in 1825, when he marvelled: \"the enormous factory buildings are seven to eight storeys high...where three years ago there were only meadows\"\nhttp://www.manchester2002-uk.com/history/victorian/Victorian3.html"
  },
  {
    "name": "Haynes Car Museum",
    "lat": 51.040476,
    "lon": -2.55827,
    "description": "Quite small so don't make a special trip, but worth a look if you're in the area."
  },
  {
    "name": "Victoria Station",
    "lat": 53.487548,
    "lon": -2.242756,
    "description": "Beautiful Edwardian station precinct; many original features remaining (ignore the ugly MEN Arena building). Creepy: this used to be the site of the Manchester Union Workhouse and its cemetry, and occasionally workers dig up old skulls and bones."
  },
  {
    "name": "Abandoned Railway/train carriages",
    "lat": 52.972683,
    "lon": -2.073501,
    "description": "A few decaying trains and a section of abandoned track, info here: http://andyworthington.tumblr.com/post/3944697074/nerdmap-1-abandoned-railway-trains"
  },
  {
    "name": "Anita Street",
    "lat": 53.485399,
    "lon": -2.230104,
    "description": "Late Victorian municipal housing development; was originally going to be named Sanitary Street, but the residents didn't like it and 'S' and 'ry' were dropped. When you are here, do also check out Victoria Square, the block at the eastern end of the street: the first example of municipal housing in Manchester.\nhttp://www.manchester.gov.uk/info/511/conservation_areas/1216/ancoats_conservation_area/2"
  },
  {
    "name": "Keighley & Worth Valley Railway",
    "lat": 53.867599,
    "lon": -1.901203,
    "description": "With the steam train through Bronte Country. Actually, this is is not nerdy, this is beautiful.\nhttp://www.kwvr.co.uk/"
  },
  {
    "name": "Pompocali",
    "lat": 53.882994,
    "lon": -1.435862,
    "description": "Pompocali - Well-preserved Roman earthworks. Hardcore geekery.\nhttp://www.theaa.com/walks/bardsey-and-pompocali-421274"
  },
  {
    "name": "Bradwell Power Station",
    "lat": 51.738935,
    "lon": 0.887146,
    "description": "Now decommissioned, this nuclear power station was built in the 1950s and quietly dominates the surrounding rural landscape. Walk eastwards from here, along a lovely shell covered beach, past WW2 pill boxes and sunken barges (to prevent coastal erosion) until you reach the atmospheric 7th century St Peter's chapel. Nerds will relish this surreal journey backwards in time, from modern nuclear science to ancient spritualism."
  },
  {
    "name": "Met Office",
    "lat": 50.727437,
    "lon": -3.475113,
    "description": "Excellent opendays for nerds by nerds. Weather, climate(change), architecture. Nerd h(e)aven, \nhttp://www.metoffice.gov.uk/about-us/contact"
  },
  {
    "name": "RAF Cosford",
    "lat": 52.634553,
    "lon": -2.314882,
    "description": "The RAF museum-V bombers hanging from the roof, atomic bombs, cold war propaganda and all sorts http://www.rafmuseum.org.uk/cosford/. And its close to a village called Tong Havana!"
  },
  {
    "name": "Richard Arkwright cotton mill",
    "lat": 52.951658,
    "lon": -1.834831,
    "description": "Now converted into JCB Academy. Close to JCB World Headquarters-there's a shop in the entrance to the factory and a park too."
  },
  {
    "name": "Bartlow Hills",
    "lat": 52.080139,
    "lon": 0.313368,
    "description": "Romano-British burial mounds - the largest is 45 feet tall. The largest round barrows in Britain."
  },
  {
    "name": "Wandlebury Ring Iron Age Hill Fort",
    "lat": 52.15898,
    "lon": 0.182648,
    "description": "An Iron Age hill fort, also the site of some archaeological controversies (http://en.wikipedia.org/wiki/Wandlebury_Enigma). Claimed to be the true site of ancient Troy (http://en.wikipedia.org/wiki/Where_Troy_Once_Stood) by some."
  },
  {
    "name": "Lloyd George Museum",
    "lat": 52.921479,
    "lon": -4.269819,
    "description": "Founder of the welfare state\n\"This is an opportunity to dress in Victorian costume, to play with period toys and to write on slate\".\nhttp://www.gwynedd.gov.uk/gwy_doc.asp?doc=13265&Language=1"
  },
  {
    "name": "Stuart Landsborough's Puzzling World",
    "lat": -44.696817,
    "lon": 169.16168700000003,
    "description": "A museum of optical illusions, an impossible leaning tower and an incredible 2 level great maze with 1.5km of passages.\n\nwww.puzzlingworld.co.nz (http://www.puzzlingworld.co.nz/)"
  },
  {
    "name": "Kelly Tarlton's Underwater World",
    "lat": -36.846727,
    "lon": 174.817371,
    "description": "\"The Antarctic Encounter is home to New Zealand’s only sub-Antarctic penguins, offering a rare opportunity to see the magnificent birds up close in their icy domain. A unique snowcat ride brings you within arms length of the 80-strong colony of King and Gentoo penguins to watch their playful antics on the snow and their elegant flight underwater.\n\nA walkthrough replica of Captain Robert Falcon Scott’s Antarctic hut (established back in 1911), complete with authentic memorabilia offers a glimpse at what it was like to live 100 years ago in the coldest place on Earth.\"\n\nwww.kellytarltons.co.nz (http://www.kellytarltons.co.nz/)"
  },
  {
    "name": "Hastings Fisherman's Museum",
    "lat": 50.849307,
    "lon": 0.585022,
    "description": "Down by the old net huts and what remains of the fishing fleet is this wonderful museum in an old church, still used for christenings & baptisms. Houses a collection of photos, nets and ropes. Fascinating: www.hastingsfish.co.uk/museum.htm (http://www.hastingsfish.co.uk/museum.htm)"
  },
  {
    "name": "Tide Mills",
    "lat": 50.781791,
    "lon": 0.069265,
    "description": "A derelict village on the coast consisting of worker's cottages from the old Tide Mill. Inhabited from 1761 onwards, the Mill stopped in 1900 and it was condemned unfit for habitation in 1936. The last inhabitants were forcibly removed in 1939 amid concerns of frontline of fire."
  },
  {
    "name": "science center NEMO",
    "lat": 52.373808,
    "lon": 4.912185,
    "description": "http://www.e-nemo.nl/en/"
  },
  {
    "name": "German Museum of Technology",
    "lat": 52.498523,
    "lon": 13.376721,
    "description": "http://www.sdtb.de/English.122.0.html"
  },
  {
    "name": "The Fauld Crater",
    "lat": 52.845238,
    "lon": -1.73069,
    "description": "This  huge crater  - the site of the world's biggest non nuclear explosion, was formed when an ammunition dump exploded in 1944"
  },
  {
    "name": "Speedwell Cavern",
    "lat": 53.341123,
    "lon": -1.7921449999999999,
    "description": "Underground cavern which you visit on a boat"
  },
  {
    "name": "Eyam - The Plague Village",
    "lat": 53.283998000000004,
    "lon": -1.671982,
    "description": "A village which chose to isolate itself when plague was discovered there in 1665 rather than let the infection spread"
  },
  {
    "name": "Placemark 195",
    "lat": 52.385501,
    "lon": 1.056061,
    "description": null
  },
  {
    "name": "Bressingham Steam Museum",
    "lat": 52.383144,
    "lon": 1.041641,
    "description": "Great little steam museum with several narrow gauge railways and one standard gauge, static displays, 1950's dodgems, gallopers, and Dad's Army sets & memorabilia."
  },
  {
    "name": "Emley Moor Transmitting Station",
    "lat": 53.612024,
    "lon": -1.664525,
    "description": "The tallest free standing building in the UK - the Emley Moor transmitting station\nhttp://en.wikipedia.org/wiki/Emley_Moor_transmitting_station"
  },
  {
    "name": "The House in the Clouds",
    "lat": 52.181248,
    "lon": 1.61027,
    "description": "Built as a folley come water tower, the House in the Clouds is a landmark in Thorpeness. Also available as holiday accommodation."
  },
  {
    "name": "Kew Bridge Steam Museum",
    "lat": 51.488866,
    "lon": -0.290236,
    "description": "http://www.kbsm.org\n\nBuilt in the 19th century to supply London with water, the museum is recognised as the most important historic site of the water supply industry in Britain.\n(Department of Culture, Media and Sport, 1999)\n\nMarvel at the world's largest collection of steam pumping engines, many of which you can see working every weekend. Be awed by the 90\" engine, the largest working beam engine in the world. \n\nRide on London's only steam railway every Sunday from April to October.\nSee how London's water supply has evolved from Roman times to the present day.\n\nKew Bridge Steam Museum is open every Tuesday to Sunday from 11:00 to 16:00 and is operated by an independent educational charity and run by volunteers."
  },
  {
    "name": "Horniman Museum",
    "lat": 51.439243,
    "lon": -0.060081,
    "description": "Stuffed birds, strange musical instruments, feasome african masks"
  },
  {
    "name": "Ladybower, Derwent and Howden Reservoir",
    "lat": 53.405643,
    "lon": -1.744766,
    "description": "Two villages were flooded to create the reservoirs and remains can be still be seen when the water level is low. \nDerwent Reservoir was alos used as a site for the RAF Dambusters to practice low-level flying in order to drop the bouncing bombs on German dams.\nhttp://www.derbyshireuk.net/derwentvalley_reservoirs.html"
  },
  {
    "name": "Kew Bridge Steam Museum",
    "lat": 51.488906,
    "lon": -0.290623,
    "description": "http://http://www.kbsm.org"
  },
  {
    "name": "Kilnsea WWI sound mirror",
    "lat": 53.627335,
    "lon": 0.131578,
    "description": "http://www.andrewgrantham.co.uk/soundmirrors/locations/kilnsea/"
  },
  {
    "name": "Turbinia: World's Fastest Ship",
    "lat": 54.969202,
    "lon": -1.624775,
    "description": "Super awesome world's first steam turbine driven & fastest ship (c1894) in the Discovery Museum in Newcastle."
  },
  {
    "name": "Castle Hill",
    "lat": 53.621449000000005,
    "lon": -1.771889,
    "description": "Crazy iron age hillfort overlooking Huddersfield. Well worth a look if you are randomly driving around Huddersfield's surrounding hills!\n\nhttp://en.wikipedia.org/wiki/Castle_Hill,_Huddersfield"
  },
  {
    "name": "Science Gallery",
    "lat": 53.344038,
    "lon": -6.250019000000001,
    "description": "A nerdtastic collision of science and art with new exhibitions every few weeks and a great cafe/bar. Well worth a visit."
  },
  {
    "name": "Claymills Pumping Station",
    "lat": 52.82969700000001,
    "lon": -1.612179,
    "description": "http://www.claymills.org.uk/\n\nVisit on a steaming day for"
  },
  {
    "name": "St. Mary's Abbey",
    "lat": 53.34732,
    "lon": -6.269438,
    "description": "St. Mary's Abbey is one of Dublin's best kept secrets. Founded in 1139, it was once the wealthiest Cistercian Abbey in Ireland. Today only two rooms remain - the Chapter House and the Slype."
  },
  {
    "name": "Horsell Common sand pits",
    "lat": 51.337127,
    "lon": -0.548716,
    "description": "Not much to actually *see*, in the traditional sense, but this is where the Martians first land in HG Wells' War of the Worlds. Worth a pilgrimage if you're that way inclined."
  },
  {
    "name": "The Kempton Great Engines Trust",
    "lat": 51.425571,
    "lon": -0.4036620000000001,
    "description": "Impressive stationary pumping engines from the 1920's - pinnacle of the technology, just before obsolescence! Steam days approx once a month - mesmerising to watch the giant engine in steam. Intriguing location - park under A316 flyover!"
  },
  {
    "name": "Solsbury Hill",
    "lat": 51.410182000000006,
    "lon": -2.334595,
    "description": "Site of awesome view, ancient hill fort and Peter Gabriel song.\n\nhttp://en.wikipedia.org/wiki/Solsbury_Hill"
  },
  {
    "name": "Energy World",
    "lat": 52.018504,
    "lon": -0.772094,
    "description": "http://en.wikipedia.org/wiki/Energy_World"
  },
  {
    "name": "The Kempton Great Engines Trust",
    "lat": 51.3025282,
    "lon": -0.4119017,
    "description": null
  },
  {
    "name": "Milton Keynes Museum",
    "lat": 52.055902,
    "lon": -0.805602,
    "description": "Includes collection of telephones and switchboards as well as GPO & BT vehicles - http://www.connected-earth.com/Partnermuseums/MiltonKeynesMuseum/index.htm\nAlso a variety of archival material and artifacts from nearby Wolverton railway works\nMain collection is a museum of Rural life."
  },
  {
    "name": "1838 Iron Girder Bridge by Robert Stephenson",
    "lat": 52.061611,
    "lon": -0.802821,
    "description": "http://en.wikipedia.org/wiki/Wolverton_railway_works#Listed_structures"
  },
  {
    "name": "Railway Tunnel Vent",
    "lat": 53.73768,
    "lon": -1.605635,
    "description": "This is a railway tunnel vent in the middle of a housing estate in Leeds."
  },
  {
    "name": "Tickford Bridge",
    "lat": 52.085836,
    "lon": -0.719992,
    "description": "built in 1810 is the only Iron bridge in Britain that still carries main road traffic and is the oldest iron bridge in the world that is still in constant use.\nhttp://en.wikipedia.org/wiki/Tickford_Bridge"
  },
  {
    "name": "ROC No. 20 Group Cold War Bunker",
    "lat": 53.956827,
    "lon": -1.116799,
    "description": "The Royal Observer Corps' No. 20 Group bunker is the only ROC Group bunker to be preserved in an operational condition, and is now open as a tourist attraction.\nhttp://en.wikipedia.org/wiki/York_Cold_War_Bunker"
  },
  {
    "name": "City Discovery Centre",
    "lat": 52.047638,
    "lon": -0.795511,
    "description": "The City Discovery Centre informs and educates visitors about urban geography and new city planning; as well as the historical and natural heritage of Milton Keynes.\nhttp://www.mkcdc.org.uk/index.htm"
  },
  {
    "name": "Singing Ringing Tree (Sculpture)",
    "lat": 53.761783,
    "lon": -2.241348,
    "description": "The Singing Ringing Tree is a wind powered sound sculpture resembling a tree overlooking Burnley, in Lancashire.\n\nhttp://en.wikipedia.org/wiki/Singing_Ringing_Tree_(Panopticons)"
  },
  {
    "name": "Haslingden Halo (Sculpture)",
    "lat": 53.708558,
    "lon": -2.31701,
    "description": "A 18m-diameter steel lattice structure, lit after dark by blue LEDs powered by a nearby wind-turbine.\n\nhttp://en.wikipedia.org/wiki/Panopticons#Haslingden_Halo"
  },
  {
    "name": "Jodrell Bank Observatory",
    "lat": 53.236487,
    "lon": -2.308652,
    "description": "http://www.jb.man.ac.uk/visitorcentre/"
  },
  {
    "name": "Tidemills",
    "lat": 50.78152,
    "lon": 0.067806,
    "description": "A derelict village built around the 1761 tide mill. The mill was stopped in 1900 and the village was declared unfit for habitation in 1936, the last inhabitants being forcibly ejected in 1939.\n\nHad its own railway station and windmill."
  },
  {
    "name": "Hasting Fishermen's Museum",
    "lat": 50.854076,
    "lon": 0.575752,
    "description": "Down by the old net huts you'll find an old church, built in 1854 at the heart of the then thriving fishing industry. Used as a store by the military during WWII, it fell into disrepair and was saved in 1956 and turned into a museum, housing a great collection of pictures, nets and a fishing boat at the centre of it all. www.ohps.org.uk/fishermens_museum/ (http://www.ohps.org.uk/fishermens_museum/)"
  },
  {
    "name": "La Coupole V2 Bunker",
    "lat": 50.705754,
    "lon": 2.243443,
    "description": "http://www.lacoupole-france.com/en/default.asp"
  },
  {
    "name": "Welwyn Roman Baths",
    "lat": 51.823132,
    "lon": -0.21416200000000002,
    "description": "Roman baths in Welwyn (http://www.welhat.gov.uk/index.aspx?articleid=723) found under the A1(M)."
  },
  {
    "name": "St Albans Verulamium Museum",
    "lat": 51.75302,
    "lon": -0.355174,
    "description": "The Verulamium (http://www.stalbansmuseums.org.uk/Sites/Verulamium-Museum) is a Roman amphitheatre that you can walk all around. There's also the baths from a Roman villa and a great museum with lots of interesting artifacts."
  },
  {
    "name": "Shaw's Corner home",
    "lat": 51.835922,
    "lon": -0.267898,
    "description": "George Bernard Shaw's home (http://www.nationaltrust.org.uk/main/w-shawscorner)."
  },
  {
    "name": "Lapstone Zig Zag",
    "lat": -33.762581,
    "lon": 150.639124,
    "description": "Remains of old zig-zag railway up into Blue Mountains. Includes abandoned Lucasville Station. Also near the historic Knapsack bridge, visit the strange Victorian mineshaft - dug for unkown reasons..."
  },
  {
    "name": "Old Lapstone rail tunnel",
    "lat": -33.770408,
    "lon": 150.635219,
    "description": "Used to store chemical weapons during World War 1"
  },
  {
    "name": "The Duck Hole",
    "lat": -33.766555,
    "lon": 150.603676,
    "description": "The walk down follows an old donkey track. Find bits of coal that used to power a steam pump in Victoria times - used to pump water to Glenbrook lagoon as a water supply for Mountains trains"
  },
  {
    "name": "Pub, Drive In & Resevoir",
    "lat": -33.807109,
    "lon": 150.90322500000002,
    "description": "Weird nerd culture mash-up here. A fake English pub, a fake American drive-in cinema and a fake lake."
  },
  {
    "name": "Cockatoo Island",
    "lat": -33.847394,
    "lon": 151.172733,
    "description": "An abandoned ex-prison and dockyard. Now used as an unusal camp-site and for art-installation projects. Worth visitng just for the tunnels through solid rock."
  },
  {
    "name": "Murray's Beach, Booderee NP",
    "lat": -35.12749,
    "lon": 150.758858,
    "description": "Intended as the site of Australia's nuclear power plant. Now part of Booderee National Park - part run by indigenous original owners of the land. Whole area is technically an independent territory, not part of NSW. Near by naval base intended as a port for the city of Canberra."
  },
  {
    "name": "Warragamba Dam",
    "lat": -33.886805,
    "lon": 150.600071,
    "description": "A great big dam. Enough said really. Enjoy."
  },
  {
    "name": "Nicholson Museum",
    "lat": -33.88636,
    "lon": 151.188827,
    "description": "Traditional museum - with MUMMIES! Occasionally has a special exhibition on (Australian) Mother's Day."
  },
  {
    "name": "Seacliff Bridge",
    "lat": -34.255124,
    "lon": 150.973349,
    "description": "http://en.wikipedia.org/wiki/Sea_Cliff_Bridge\nWorth a look"
  },
  {
    "name": "The Bakelite Museum",
    "lat": 51.157869,
    "lon": -3.324265,
    "description": null
  },
  {
    "name": "Cairngorm Mountain Railway",
    "lat": 57.133602,
    "lon": -3.6699810000000004,
    "description": "Funicular Railway to 1097m above sea level\n\nhttp://www.cairngormmountain.co.uk/see-do/funicular-railway"
  },
  {
    "name": "Parallel Roads – Glen Roy",
    "lat": 56.95003,
    "lon": -4.793987,
    "description": "Remnants of shorelines of a glacial lake, visible half way up the mountiain"
  },
  {
    "name": "National Space Centre",
    "lat": 52.654702,
    "lon": -1.133823,
    "description": "Large space museum in Leicester with IMAX cinema.\n\nhttp://www.spacecentre.co.uk"
  },
  {
    "name": "Abbey Pumping Station",
    "lat": 52.655509,
    "lon": -1.130648,
    "description": "Sewage museum, featuring a massive beam-engine pump built to move sewage uphill in 1891.\n\nhttp://www.leicester.gov.uk/your-council-services/lc/leicester-city-museums/museums/abbey-pumping-station/"
  },
  {
    "name": "Abbey Pumping Station",
    "lat": 52.655392,
    "lon": -1.13054,
    "description": "Excellent sewerage museum, built inside an 1891-built pumping station.  The building still contains the huge beam-engine pump built to shift sewage uphill.\n\nhttp://www.leicester.gov.uk/your-council-services/lc/leicester-city-museums/museums/abbey-pumping-station/"
  },
  {
    "name": "National Space Centre",
    "lat": 52.654715,
    "lon": -1.133609,
    "description": "Big space museum with an IMAX cinema.\n\nhttp://www.spacecentre.co.uk"
  },
  {
    "name": "Yorkshire Waterways Museum",
    "lat": 53.694699,
    "lon": -0.889463,
    "description": "http://www.waterwaysmuseum.org.uk/\n\nGreat little museum where you can see the famous Tom Puddings - the boats which  carried coal from the west yorkshire coal mines to Goole. And at weekends there's trips round Goole docks."
  },
  {
    "name": "Sandtoft Trolleybus Museum",
    "lat": 53.563746,
    "lon": -0.871117,
    "description": "The world's largest collection of preserved trolleybuses!\nhttp://www.sandtoft.org.uk/index.html"
  },
  {
    "name": "Working windmill",
    "lat": 53.329425,
    "lon": -0.8376970000000001,
    "description": "Built in 1813 by a group of local farmers, it's never stopped milling.\nhttp://www.north-leverton-windmill.co.uk"
  },
  {
    "name": "Beacon Hill",
    "lat": 53.408841,
    "lon": -0.885687,
    "description": "Small hill with remains of a hillfort, and where beacon fires were lit to pass messages across the countryside"
  },
  {
    "name": "Ardeer Dynamite Factory",
    "lat": 55.620121,
    "lon": -4.717426,
    "description": "Nobel's old factory is scattered around here."
  },
  {
    "name": "The Royal Institution",
    "lat": 51.509891,
    "lon": -0.142608,
    "description": "Founded in 1799, the Royal Institution is the oldest science communication organisation in the world, home of the first scientific laboratories in London and the site of the discovery of 10 chemical elements."
  },
  {
    "name": "M4 Junction 13.5 for RAF Welford",
    "lat": 51.451008,
    "lon": -1.398515,
    "description": "http://www.secret-bases.co.uk/secret4.htm#welford"
  },
  {
    "name": "Cromford Mill",
    "lat": 53.108943,
    "lon": -1.556078,
    "description": "World's first successful water-powered cotton mill."
  },
  {
    "name": "Placemark 195",
    "lat": 51.488973,
    "lon": -0.290644,
    "description": null
  },
  {
    "name": "London Transport Museum",
    "lat": 51.511494,
    "lon": -0.121837,
    "description": null
  },
  {
    "name": "Westgate Museum, Winchester",
    "lat": 51.063539,
    "lon": -1.319073,
    "description": "Housed in a fortified Medieval Gate House, the Westgate Museum houses a unique collection of pre-Imperial weights and measures. http://www.winchester.gov.uk/LeisureAndCulture/MuseumsAndGalleries/WestgateMuseum/ \nhttp://www.winchestermuseumcollections.org.uk (http://www.winchestermuseumcollections.org.uk/index.asp?page=summary&mwsquery={totopic}={weights%20and%20measures})"
  },
  {
    "name": "Cromarty Forth",
    "lat": 57.683964,
    "lon": -4.152145,
    "description": "It's full of oil rigs and related erections being built, refurbished and demolished.  Get the sleeper train to Inverness then bicycle up around here."
  },
  {
    "name": "Tyneham",
    "lat": 50.622677,
    "lon": -2.168427,
    "description": "Ghost village -- residents were evicted in WWII when the area was taken over for military training and never given back.  Nice short walk from here to the beach for a BBQ, too.\n\nDuring the week it's closed for shelling, but open most weekends and all of August.\n\nhttp://en.wikipedia.org/wiki/Tyneham"
  },
  {
    "name": "Lulworth Cove & Durdle Door",
    "lat": 50.620499,
    "lon": -2.260952,
    "description": "Bit of geology.  Concordant coastline and all that: boundaries between rock types run parallel to the short, creating these bizarre landforms."
  },
  {
    "name": "Dawlish railway",
    "lat": 50.57299,
    "lon": -3.469534,
    "description": "Best nerdy railway trip in Britain.  It goes right by the beach, and through lots of crazy little tunnels.\n\nMake sure you sit on the left as you head west."
  },
  {
    "name": "China Clay Pit",
    "lat": 50.364518,
    "lon": -4.806819,
    "description": "\"Wheal Martyn\".  Not been since I was about 8, and I can't remember how much it was serious museum and how much it was for kids to run around.\n\nI do remember there was a view point over an actual working modern china clay pit, plus lots of old industrial shit."
  },
  {
    "name": "Electric Mountain",
    "lat": 53.119478,
    "lon": -4.111118,
    "description": "Underground hydro power station - lots of tunnels and machinery."
  },
  {
    "name": "Snowdon Mountain Railway",
    "lat": 53.115924,
    "lon": -4.119959,
    "description": "All the fun of being on the top of a mountain without even having to put in the effort of climbing it: use the steam powered rack railway."
  },
  {
    "name": "National Slate Museum",
    "lat": 53.12262,
    "lon": -4.118156,
    "description": "Massive old quarries and mines, with associated railways and industrial stuff."
  },
  {
    "name": "Thinktank Digital Planetarium",
    "lat": 52.48340700000001,
    "lon": -1.8862580000000002,
    "description": "The UK's most progressive digital dome, the UK's first purpose-built digital planetarium, and now one of the top 10 busiest small planetariums in the world! (http://www.thinktank.ac/planetarium)"
  },
  {
    "name": "Anatomy museum",
    "lat": 43.61283,
    "lon": 3.8735180000000002,
    "description": "http://www.afranceattraction.com/france-attractions-mp/anatomy-museum.htm"
  },
  {
    "name": "Fakenham Museum of Gas and Local History",
    "lat": 52.826559,
    "lon": 0.846784,
    "description": "aka the Fakenham Gas Works, the only surviving town gasworks in England and Wales which as such is a Scheduled Ancient Monument.  The small museum comprises all equipment used for the manufacture of gas from coal: retorts, condenser, purifiers, meter and gasholder.\n\nAs well as all the machines and systems used to produced gas for the town from 1846 to 1965, the museum houses a small, eclectic local history collection and a brilliantly nerdy set of gas cookers and gas fires from throughout the ages."
  },
  {
    "name": "Newington Armory",
    "lat": -33.828145,
    "lon": 151.061625,
    "description": "The old site for storing munitions in Sydney, is now a park of strange bunkers. There is also a narrow gauge rail that runs on the tracks that used to transport battleship shells. The train takes you into a cordoned off nature reserve. Exhibits, a cafe and also an outfit runs Segway tours. Also a frisbee 'golf' course."
  },
  {
    "name": "Craven Lime Kilns",
    "lat": 54.091688,
    "lon": -2.270093,
    "description": "Old industrial site with lots of old mossy buildings, tunnels and waterways. Also bonus peregrines!"
  },
  {
    "name": "Atmospheric Road",
    "lat": 53.27801,
    "lon": -6.112034,
    "description": "Dalkey Atmospheric Railway (1843-1854) was powered by a vacuum in a 15-inch pipe for the ascent to Dalkey. Speeds of up to 40 mph were achieved, and the return journey was by means of gravity. The vacuum tube fell short of the Dalkey station, and the train relied on momentum for the last stretch of the journey.\n\n \nBarnhill Lawn, Dun Laoghaire, Co. Dublin, Ireland"
  },
  {
    "name": "Dinorwic Slate Quarry",
    "lat": 53.123444,
    "lon": -4.103651,
    "description": "Second largest slate quarry in the world. Disused since the 1960s. Fantastic rusting history."
  },
  {
    "name": "National Slate Museum",
    "lat": 53.120586,
    "lon": -4.115281,
    "description": null
  },
  {
    "name": "Electric Mountain",
    "lat": 53.118731,
    "lon": -4.12159,
    "description": null
  },
  {
    "name": "Severn Bore",
    "lat": 51.802883,
    "lon": -2.437935,
    "description": "http://www.severn-bore.co.uk/\n\nThe Severn Bore is one of Britain's few truly spectacular natural phenomena. It is a large surge wave that can be seen in the estuary of the River Severn, where the tidal range is the 2nd highest in the world, being as much as 50 feet (approx. 15.4m)."
  },
  {
    "name": "Chislehurst Caves",
    "lat": 51.407103,
    "lon": 0.056906,
    "description": "22 miles of tunnels under suburban south London, originally a chalk and flint mine with druidic/Roman origins. More recent uses include a WW2 air raid shelter for 15000 Londoners, and a rock concert venue. Excellent guided tours with atmospheric kerosene lamps."
  },
  {
    "name": "St Clement's Church",
    "lat": 51.472188,
    "lon": 0.292382,
    "description": "A pretty medieval church overshadowed by two absolutely enormous factories both less than 20 metres away that don't just look ugly, they smell and sound horrible too. File under \"terrifying modernity\". A very short day trip, this one."
  },
  {
    "name": "Britain's 1st roundabout",
    "lat": 51.97091,
    "lon": -0.232816,
    "description": "The location of britain's first roundabout in the World's first Garden City!!"
  },
  {
    "name": "Severn Bore",
    "lat": 51.801928,
    "lon": -2.433128,
    "description": "http://www.severn-bore.co.uk/"
  },
  {
    "name": "Servern Bore",
    "lat": 51.803095,
    "lon": -2.436562,
    "description": "http://www.severn-bore.co.uk/"
  },
  {
    "name": "Placemark 195",
    "lat": 51.501664,
    "lon": -0.053816,
    "description": null
  },
  {
    "name": "National Railway Museum",
    "lat": 53.95959500000001,
    "lon": -1.0948130000000003,
    "description": "Ronseal"
  },
  {
    "name": "Placemark 196",
    "lat": 53.965349,
    "lon": -1.092834,
    "description": null
  },
  {
    "name": "Plague exhibition",
    "lat": 53.96094,
    "lon": -1.082722,
    "description": "http://www.barleyhall.org.uk/content.asp?ID=17 Nice plague doctor's outfit."
  },
  {
    "name": "York Castle Museum",
    "lat": 53.955082,
    "lon": -1.07857,
    "description": "The best nerd bit is probably the history of household goods. Washing machine development FTW.\nAlso lots of old farm equipment, & everything York people never got round to throwing away.\nFree entry to York locals with 'York card' (library card)."
  },
  {
    "name": "Bootham Park Hospital, AKA Yorkshire County Lunatic Asylum",
    "lat": 53.967662,
    "lon": -1.085544,
    "description": "The last of the old County Lunatic Asylums still in use as a psych hospital.\n\nGrounds have a public footpath through, wander in to look at the architecture.\n\nInside isn't *technically* open to the public, though walk confidently past the receptionist and turn down corridor to your right to see the only portrait of 'Sir Jeffery Dunstan Mayor of Garratt' (http://en.wikipedia.org/wiki/Mayor_of_Garratt), the original boardroom with lots of interesting inscriptions, & some spectacularly OTT architecture, tiling & stained glass.\n\nYork County Lunatic Asylum was historically notorious for its poor conditions. The death of a Quaker from Leeds there led to the setting up of the York Retreat, with its pioneering 'moral treatment', a significant moment in the history of psychiatry.\n\nThe Retreat still exists, in its original buildings near the University of York. Also not open to the public, but the Quaker graveyard at the back is, with interesting dead people such as Seebohm Rowntree, whose 'Study of Poverty & Town Life' helped found the discipline of epidemiology.\n\nAvoid admission, the female inpatient consultant psychiatrist is at least thirty years out of date in her practice, & the food is crap."
  },
  {
    "name": "Death of John Woolman",
    "lat": 53.962224,
    "lon": -1.090178,
    "description": "http://en.wikipedia.org/wiki/John_Woolman\n\nJohn Woolman, early Quaker anti-slavery advocate, died here."
  },
  {
    "name": "Yorkshire Philosophical Society",
    "lat": 53.961833,
    "lon": -1.087652,
    "description": "YPS have all sorts of interesting talks here.\nSchedule at: http://www.yorksphilsoc.org.uk/\nThe museum has some good Romans too."
  },
  {
    "name": "York Observatory",
    "lat": 53.961221,
    "lon": -1.088006,
    "description": "Open to the public about Saturday lunchtimes."
  },
  {
    "name": "Birthplace of John Snow",
    "lat": 53.958573,
    "lon": -1.085404,
    "description": "John Snow, epidemiologist & anaesthesiologist, most famous for taking the handle off Broad Street pump to prevent a cholera epidemic, born here.\n\nToday there's just a small plaque on a dull chain hotel wall. All Saints North Street church across the road, where he was baptised, gives a bit of a flavour of the squalid riverside slums Snow was born into though. Beware the rather scary Anglo-Catholics."
  },
  {
    "name": "Midget submarines",
    "lat": 56.022881,
    "lon": -2.879569,
    "description": "The remains of midget submarines at Aberlady Bay. These were used for RAF target practice at the end of WWII.\n\n \nObviously, consult tide tables before heading out.\n\n \nSee here (http://www.derelictplaces.co.uk/main/showthread.php?t=12093) for more information."
  },
  {
    "name": "Muybridge Collection",
    "lat": 51.409205,
    "lon": -0.300236,
    "description": "http://www.kingston.gov.uk/museum/muybridge/\n\nCollection of images and artefacts from one of the pioneers of the moving image"
  },
  {
    "name": "Museum Of Scottish Lighthouses",
    "lat": 57.69720600000001,
    "lon": -2.004298,
    "description": "fabulous collection of lighthouse glass lenses, guided tours of old lighthouse by old lighthouse keepers"
  },
  {
    "name": "Jeffrey's Mount Road Cutting",
    "lat": 54.419929,
    "lon": -2.597065,
    "description": "classic Open University geology field trip site, excellent examples of synclines & anticlines (also handy for the most excellent Tebay services)"
  },
  {
    "name": "Alderley Edge mines",
    "lat": 53.295747,
    "lon": -2.215548,
    "description": "the mines under Alderley Edge were worked from the Bronze Age to early 20thC. They are now managed by Derbyshire Caving Club who organise open days twice a year, and can organise trips for groups by arrangement. There is a small museum of mine history, minerals & artefacts run by the caving club, open most Sundays \nhttp://www.derbyscc.org.uk/alderley/index.php"
  },
  {
    "name": "The London Sewing Machine Museum",
    "lat": 51.436487,
    "lon": -0.158658,
    "description": "www.sewantique.com (http://www.sewantique.com)\nTwo large rooms above a sewing machine company: one crammed full of early domestic machines in a variety of shapes, sizes, designs and amounts of decoration; the other room is dedicated to a great range of specialised industrial machines dating from the XIX to mid-XX century.\nThe (free) museum is only open 3 hours a month: between 2 and 5 p.m. on the first Saturday."
  },
  {
    "name": "Museum of Automata",
    "lat": 45.188015,
    "lon": 5.716812,
    "description": "The Grenoble Automaton Museum (http://www.museedesautomatesdegrenoble.fr/) is a private museum displaying a collection of mechanical toys, player pianos, barrel organs and puppets. Particularly good fun if you can understand French reasonably well: the guided tour includes a chance to play with some of the exhibits."
  },