{
  "items": [
    {
      "id": "3905",
      "name": "Fitzgerald's Park",
      "lat": "51.89478001532549",
      "lon": "-8.499056322021488",
      "editable": 0
    },
    {
      "id": "3904",
      "name": "Derrynane House",
      "lat": "51.76235379073393",
      "lon": "-10.130654794616703",
      "editable": 0
    },
    {
      "id": "3903",
      "name": "Canada",
      "lat": "43.6953439",
      "lon": "-79.3183887",
      "editable": 0
    },
    {
      "id": "3902",
      "name": "Nimis in Ladonia",
      "lat": "56.220914",
      "lon": "12.544054",
      "editable": 0
    },
    {
      "id": "3901",
      "name": "Breckenridge, Colorado",
      "lat": "39.483937818502014",
      "lon": "-106.04778948642581",
      "editable": 0
    },
    {
      "id": "3900",
      "name": "Shiloh National Military Park",
      "lat": "35.14389574025874",
      "lon": "-88.35610054199219",
      "editable": 0
    },
    {
      "id": "3899",
      "name": "Bear Mountain, New York",
      "lat": "41.31086643674526",
      "lon": "-73.98977063362122",
      "editable": 0
    },
    {
      "id": "3898",
      "name": "76 House (Mabie's Inn)",
      "lat": "41.02172568039331",
      "lon": "-73.94884012405396",
      "editable": 0
    },
    {
      "id": "3897",
      "name": "Bristol Renaissance Faire",
      "lat": "42.497388",
      "lon": "-87.955353",
      "editable": 0
    },
    {
      "id": "3896",
      "name": "Gainsborough House",
      "lat": "52.03811718191933",
      "lon": "0.727485197143551",
      "editable": 0
    },
    {
      "id": "3895",
      "name": "Stott Hall Farm",
      "lat": "53.64160897795542",
      "lon": "-1.9521381682586707",
      "editable": 0
    },
    {
      "id": "3894",
      "name": "M62 Summit",
      "lat": "53.62972921912123",
      "lon": "-2.0185791677665748",
      "editable": 0
    },
    {
      "id": "3893",
      "name": "Earthquake House, Comrie",
      "lat": "56.3719367172078",
      "lon": "-4.001437050743107",
      "editable": 0
    },
    {
      "id": "3892",
      "name": "Cavanal Hill",
      "lat": "35.0759287759305",
      "lon": "-94.65057991210938",
      "editable": 0
    },
    {
      "id": "3891",
      "name": "Ave Maria Grotto",
      "lat": "34.129832939956586",
      "lon": "-86.763771609375",
      "editable": 0
    },
    {
      "id": "3890",
      "name": "Fort Desoto Park",
      "lat": "27.639066",
      "lon": "-82.737510",
      "editable": 0
    },
    {
      "id": "3889",
      "name": "Florida Holocaust Museum",
      "lat": "27.770518",
      "lon": "-82.640538",
      "editable": 0
    },
    {
      "id": "3888",
      "name": "The British Postal Museum Store",
      "lat": "51.64686989648878",
      "lon": "0.08839922671813838",
      "editable": 0
    },
    {
      "id": "3887",
      "name": "The British Postal Museum & Archive",
      "lat": "51.52381352345906",
      "lon": "-0.11232739484398735",
      "editable": 0
    },
    {
      "id": "3886",
      "name": "Frostburg Museum",
      "lat": "39.6499271631941",
      "lon": "-78.9271718452606",
      "editable": 0
    },
    {
      "id": "3885",
      "name": "Amelia Earhart Memorial",
      "lat": "51.68408945813397",
      "lon": "-4.251209718627933",
      "editable": 0
    },
    {
      "id": "3884",
      "name": "National Cinema Museum",
      "lat": "45.0694634",
      "lon": "7.6968477",
      "editable": 0
    },
    {
      "id": "3883",
      "name": "The Anime Planet Presents",
      "lat": "28.7588218",
      "lon": "-81.2941794",
      "editable": 0
    },
    {
      "id": "3882",
      "name": "Lostwithiel",
      "lat": "50.407073277577055",
      "lon": "-4.6693875617218055",
      "editable": 0
    },
    {
      "id": "3881",
      "name": "Royal Cornwall Museum",
      "lat": "50.263532824752076",
      "lon": "-5.054588315529827",
      "editable": 0
    },
    {
      "id": "3880",
      "name": "Luray Caverns",
      "lat": "38.67892502229282",
      "lon": "-78.46222533610285",
      "editable": 0
    },
    {
      "id": "3879",
      "name": "Moosonee - Moose Factory",
      "lat": "51.11374579528773",
      "lon": "-79.534765703125",
      "editable": 0
    },
    {
      "id": "3878",
      "name": "Ste. Marie among the Hurons",
      "lat": "44.731381",
      "lon": "-79.832392",
      "editable": 0
    },
    {
      "id": "3877",
      "name": "Seymour Marine Discovery Center",
      "lat": "36.951623",
      "lon": "-122.055516",
      "editable": 0
    },
    {
      "id": "3876",
      "name": "Cadbury World",
      "lat": "52.429796518543824",
      "lon": "-1.932456118507389",
      "editable": 0
    },
    {
      "id": "3875",
      "name": "The Diskery",
      "lat": "52.47205705230484",
      "lon": "-1.8990545696449317",
      "editable": 0
    },
    {
      "id": "3874",
      "name": "Industry and Genius Statue",
      "lat": "52.47967182880559",
      "lon": "-1.907187027378086",
      "editable": 0
    },
    {
      "id": "3873",
      "name": "Ikon Gallery",
      "lat": "52.47761673683198",
      "lon": "-1.91245756809235",
      "editable": 0
    },
    {
      "id": "3872",
      "name": "Surf Ballroom",
      "lat": "43.13993341240487",
      "lon": "-93.43659065429688",
      "editable": 0
    },
    {
      "id": "3871",
      "name": "Sol y Sombra Tapas Bar",
      "lat": "52.05659253694633",
      "lon": "-9.816900712890628",
      "editable": 0
    },
    {
      "id": "3870",
      "name": "Butt-Millet Memorial Fountain",
      "lat": "38.89526802423701",
      "lon": "-77.03745132749123",
      "editable": 0
    },
    {
      "id": "3869",
      "name": "Glensheen Mansion",
      "lat": "46.814874",
      "lon": "-92.052077",
      "editable": 0
    },
    {
      "id": "3868",
      "name": "The 4th  St Juans Pirate Festival",
      "lat": "28.7588218",
      "lon": "-81.2941794",
      "editable": 0
    },
    {
      "id": "3867",
      "name": "little fish HUGE pond",
      "lat": "28.7588218",
      "lon": "-81.2941794",
      "editable": 0
    },
    {
      "id": "3866",
      "name": "Discovery Centre",
      "lat": "44.6458346",
      "lon": "-63.5731559",
      "editable": 0
    },
    {
      "id": "3865",
      "name": "Akron Zoo",
      "lat": "41.0683790",
      "lon": "-81.5459300",
      "editable": 0
    },
    {
      "id": "3864",
      "name": "Muddy Pond General Store",
      "lat": "36.19752784447518",
      "lon": "-85.12764520243377",
      "editable": 0
    },
    {
      "id": "3863",
      "name": "cumberland state park",
      "lat": "35.900312211487055",
      "lon": "-85.00009916488648",
      "editable": 0
    },
    {
      "id": "3862",
      "name": "Start of a History of Science walking tour",
      "lat": "51.50955854069703",
      "lon": "-0.13511741514275855",
      "editable": 0
    },
    {
      "id": "3861",
      "name": "Campus Martius Museum",
      "lat": "39.4153520",
      "lon": "-81.4548436",
      "editable": 0
    },
    {
      "id": "3860",
      "name": "Onay Beach",
      "lat": "12.575892429223076",
      "lon": "125.00797517831802",
      "editable": 0
    },
    {
      "id": "3859",
      "name": "Ladew Topiary Gardens",
      "lat": "39.579511164213116",
      "lon": "-76.51481292907715",
      "editable": 0
    },
    {
      "id": "3858",
      "name": "El Pozo de Jacinto",
      "lat": "18.508075843436923",
      "lon": "-67.05704353515625",
      "editable": 0
    },
    {
      "id": "3857",
      "name": "Malmesbury - oldest town in England",
      "lat": "51.58313514683621",
      "lon": "-2.0945420092773475",
      "editable": 0
    },
    {
      "id": "3856",
      "name": "Resting place of Ian Fleming",
      "lat": "51.6118677271079",
      "lon": "-1.6983904666137732",
      "editable": 0
    },
    {
      "id": "3855",
      "name": "Lettuce Lake Park",
      "lat": "28.078055",
      "lon": "-82.380689",
      "editable": 0
    },
    {
      "id": "3854",
      "name": "Capidava",
      "lat": "44.49447562346344",
      "lon": "28.089568393783566",
      "editable": 0
    },
    {
      "id": "3853",
      "name": "RAF Saxa Vord",
      "lat": "60.82406851583542",
      "lon": "-0.8421006030273475",
      "editable": 0
    },
    {
      "id": "3852",
      "name": "Castleshaw Roman fort",
      "lat": "53.583278612622905",
      "lon": "-2.0033093518447913",
      "editable": 0
    },
    {
      "id": "3851",
      "name": "Arizona",
      "lat": "32.2540946",
      "lon": "-110.8850949",
      "editable": 0
    },
    {
      "id": "3850",
      "name": "Saddleworth Museum",
      "lat": "53.54678638319253",
      "lon": "-2.007689399166111",
      "editable": 0
    },
    {
      "id": "3849",
      "name": "Standedge Visitor Centre",
      "lat": "53.60433317234022",
      "lon": "-1.9408299750518836",
      "editable": 0
    },
    {
      "id": "3848",
      "name": "St. Mary's Cemetery",
      "lat": "39.08140737362243",
      "lon": "-77.1440378393616",
      "editable": 0
    },
    {
      "id": "3847",
      "name": "James Watts Buiral site",
      "lat": "52.50988595027475",
      "lon": "-1.9211640185546912",
      "editable": 0
    },
    {
      "id": "3846",
      "name": "Constanta",
      "lat": "44.1756620586664",
      "lon": "28.63456107910156",
      "editable": 0
    },
    {
      "id": "3845",
      "name": "ZigZag Steam and Rail Motor Railway",
      "lat": "",
      "lon": "",
      "editable": 0
    },
    {
      "id": "3844",
      "name": "Age of Fishes Museum",
      "lat": "-33.55345006903138",
      "lon": "148.6675343685913",
      "editable": 0
    },
    {
      "id": "3843",
      "name": "Tulcea",
      "lat": "45.19254579294111",
      "lon": "28.79454948242187",
      "editable": 0
    },
    {
      "id": "3842",
      "name": "Chindia Tower",
      "lat": "44.93222123449475",
      "lon": "25.458117502288815",
      "editable": 0
    },
    {
      "id": "3841",
      "name": "Bentley Miniature Railway",
      "lat": "50.923490546802256",
      "lon": "0.11229910190581904",
      "editable": 0
    },
    {
      "id": "3840",
      "name": "J. Millard Tawes Museum",
      "lat": "37.97905460695141",
      "lon": "-75.86056850616455",
      "editable": 0
    },
    {
      "id": "3839",
      "name": "Covered Bridge Festival",
      "lat": "39.67533394348788",
      "lon": "-87.10503242675782",
      "editable": 0
    },
    {
      "id": "3838",
      "name": "Ryves Holt House",
      "lat": "38.77595236030555",
      "lon": "-75.14118230146636",
      "editable": 0
    },
    {
      "id": "3837",
      "name": "Zwaanendael Museum",
      "lat": "38.773863507712285",
      "lon": "-75.13913193506465",
      "editable": 0
    },
    {
      "id": "3836",
      "name": "Woodland Ferry",
      "lat": "38.59930642299575",
      "lon": "-75.65620915113527",
      "editable": 0
    },
    {
      "id": "3835",
      "name": "Fenwick Island Lighthouse",
      "lat": "38.45133249080284",
      "lon": "-75.05489015097965",
      "editable": 0
    },
    {
      "id": "3834",
      "name": "Messick Agricultural Museum",
      "lat": "38.919077498804214",
      "lon": "-75.58403200888671",
      "editable": 0
    },
    {
      "id": "3833",
      "name": "John Dickinson Plantation",
      "lat": "39.10401923979403",
      "lon": "-75.4491305303589",
      "editable": 0
    },
    {
      "id": "3832",
      "name": "Delaware Agricultural Museum & Village",
      "lat": "39.18110010760947",
      "lon": "-75.53107766950683",
      "editable": 0
    },
    {
      "id": "3831",
      "name": "Stan Hywet Hall and Gardens",
      "lat": "41.11651620429883",
      "lon": "-81.54876511643067",
      "editable": 0
    },
    {
      "id": "3830",
      "name": "West Side Market",
      "lat": "41.4857101",
      "lon": "-81.6966306",
      "editable": 0
    },
    {
      "id": "3829",
      "name": "Johnson Victrola Museum",
      "lat": "39.15544850825088",
      "lon": "-75.52731155872499",
      "editable": 0
    },
    {
      "id": "3828",
      "name": "New Castle Court House Museum",
      "lat": "39.659802072721355",
      "lon": "-75.56369304180299",
      "editable": 0
    },
    {
      "id": "3827",
      "name": "Read House",
      "lat": "39.659686438675514",
      "lon": "-75.56197642803346",
      "editable": 0
    },
    {
      "id": "3826",
      "name": "Amstel House",
      "lat": "39.6605299144568",
      "lon": "-75.56487357616578",
      "editable": 0
    },
    {
      "id": "3825",
      "name": "Hagley Museum",
      "lat": "39.77498345534724",
      "lon": "-75.57803294259031",
      "editable": 0
    },
    {
      "id": "3824",
      "name": "RAF Stenigot Dishes",
      "lat": "53.32894054610747",
      "lon": "-0.11849879371641237",
      "editable": 0
    },
    {
      "id": "3823",
      "name": "Littledean Jail",
      "lat": "51.82202430837907",
      "lon": "-2.4755229777526893",
      "editable": 0
    },
    {
      "id": "3822",
      "name": "The Cat and Fiddle",
      "lat": "53.24168016857487",
      "lon": "-1.994978410644535",
      "editable": 0
    },
    {
      "id": "3821",
      "name": "Les Oakes Place",
      "lat": "52.991112910472914",
      "lon": "-1.9701357907486",
      "editable": 0
    },
    {
      "id": "3819",
      "name": "Teackle Mansion",
      "lat": "38.203748651305695",
      "lon": "-75.69662445733644",
      "editable": 0
    },
    {
      "id": "3818",
      "name": "Assateague Island National Seashore",
      "lat": "38.05407987984612",
      "lon": "-75.22695007636719",
      "editable": 0
    },
    {
      "id": "3817",
      "name": "Calvin B. Taylor Museum",
      "lat": "38.32725177023577",
      "lon": "-75.22066768513184",
      "editable": 0
    },
    {
      "id": "3816",
      "name": "Berlin, MD",
      "lat": "38.325624102332874",
      "lon": "-75.21784514931642",
      "editable": 0
    },
    {
      "id": "3815",
      "name": "Ward Museum of Wildfowl Art",
      "lat": "38.35159544671458",
      "lon": "-75.57279741204223",
      "editable": 0
    },
    {
      "id": "3814",
      "name": "Salisbury Zoo",
      "lat": "38.36048398032566",
      "lon": "-75.58262611306156",
      "editable": 0
    },
    {
      "id": "3813",
      "name": "Pemberton Historical Park",
      "lat": "38.34875570878968",
      "lon": "-75.6451108542725",
      "editable": 0
    },
    {
      "id": "3812",
      "name": "Edward H. Nabb Research Center for Delmarva History & Culture",
      "lat": "38.34453171967027",
      "lon": "-75.6057392875",
      "editable": 0
    },
    {
      "id": "3811",
      "name": "East New Market, MD",
      "lat": "38.597049544439336",
      "lon": "-75.92474616210933",
      "editable": 0
    },
    {
      "id": "3810",
      "name": "Spocott Windmill & Village",
      "lat": "38.58455364476299",
      "lon": "-76.17043804512934",
      "editable": 0
    },
    {
      "id": "3809",
      "name": "Harriet Tubman Museum",
      "lat": "38.56954673640391",
      "lon": "-76.07699314461672",
      "editable": 0
    },
    {
      "id": "3808",
      "name": "Museum of Rural Life",
      "lat": "38.88706430109198",
      "lon": "-75.83213845464172",
      "editable": 0
    },
    {
      "id": "3807",
      "name": "Phillips Wharf Environmental Center",
      "lat": "38.716785961866364",
      "lon": "-76.3304463626709",
      "editable": 0
    },
    {
      "id": "3806",
      "name": "Old Wye Grist Mill",
      "lat": "38.94247653176868",
      "lon": "-76.08162356558228",
      "editable": 0
    },
    {
      "id": "3805",
      "name": "Buchanan's Birthplace State Park",
      "lat": "39.8694797686298",
      "lon": "-77.95342109863282",
      "editable": 0
    },
    {
      "id": "3804",
      "name": "The Oak Table Cafe",
      "lat": "48.0795365",
      "lon": "-123.1018437",
      "editable": 0
    },
    {
      "id": "3803",
      "name": "bucharest",
      "lat": "44.43167900461555",
      "lon": "26.107018964843746",
      "editable": 0
    },
    {
      "id": "3802",
      "name": "Old State House Museum",
      "lat": "34.74850174913976",
      "lon": "-92.27272766420134",
      "editable": 0
    },
    {
      "id": "3801",
      "name": "Avery Island",
      "lat": "29.9091220",
      "lon": "-91.9053420",
      "editable": 0
    },
    {
      "id": "3800",
      "name": "National Physical Laboratory",
      "lat": "51.42333500480451",
      "lon": "-0.34385345642090215",
      "editable": 0
    },
    {
      "id": "3799",
      "name": "Big Thicket National Preserve",
      "lat": "30.3715975",
      "lon": "-94.3124116",
      "editable": 0
    },
    {
      "id": "3798",
      "name": "Grave of Sir Arthur Conan Doyle",
      "lat": "50.97560746280882",
      "lon": "-1.4407803839874305",
      "editable": 0
    },
    {
      "id": "3797",
      "name": "Plumpton Park Zoo",
      "lat": "39.703851254257955",
      "lon": "-76.00123527875974",
      "editable": 0
    },
    {
      "id": "3796",
      "name": "Patuxent River Naval Air Museum",
      "lat": "38.27612019828635",
      "lon": "-76.46335821403198",
      "editable": 0
    },
    {
      "id": "3795",
      "name": "Sotterley Plantation",
      "lat": "38.375317710765515",
      "lon": "-76.54603129130862",
      "editable": 0
    },
    {
      "id": "3794",
      "name": "Wing Haven Gardens & Bird Sanctuary",
      "lat": "35.179025482082615",
      "lon": "-80.84092931097416",
      "editable": 0
    },
    {
      "id": "3793",
      "name": "Catawba Indian Nation/Cultural Center",
      "lat": "34.90165570761583",
      "lon": "-80.88307217901615",
      "editable": 0
    },
    {
      "id": "3792",
      "name": "Stans African Halls (Permanent Taxidermy Exhibit at Museum of York County)",
      "lat": "35.01134227144802",
      "lon": "-81.06198624914555",
      "editable": 0
    },
    {
      "id": "3791",
      "name": "The Eric Carle Museum of Picture Book Art",
      "lat": "42.32073296963818",
      "lon": "-72.53337199201815",
      "editable": 0
    },
    {
      "id": "3790",
      "name": "Tiptree Jam Factory and Museum",
      "lat": "51.80592293339913",
      "lon": "0.7549643308227587",
      "editable": 0
    },
    {
      "id": "3789",
      "name": "Museum of the Alphabet",
      "lat": "34.86433578435235",
      "lon": "-80.74155058284208",
      "editable": 0
    },
    {
      "id": "3788",
      "name": "Mystery Hill",
      "lat": "36.16330358176233",
      "lon": "-81.64405722071075",
      "editable": 0
    },
    {
      "id": "3787",
      "name": "Land of Oz",
      "lat": "36.18291610852278",
      "lon": "-81.86869941930081",
      "editable": 0
    },
    {
      "id": "3786",
      "name": "World's Largest Chest of Drawers",
      "lat": "35.963560894936954",
      "lon": "-80.00819635219193",
      "editable": 0
    },
    {
      "id": "3785",
      "name": "78 Derngate",
      "lat": "52.202016",
      "lon": "-0.894286",
      "editable": 0
    },
    {
      "id": "3784",
      "name": "Mt. St. Helens - Meta Lake",
      "lat": "46.29574131434282",
      "lon": "-122.07810238094328",
      "editable": 0
    },
    {
      "id": "3783",
      "name": "Mt. St. Helens - Windy Ridge Interpretive Center",
      "lat": "46.24972370818502",
      "lon": "-122.1367414829254",
      "editable": 0
    },
    {
      "id": "3782",
      "name": "The Balancing Barn",
      "lat": "52.31226853892447",
      "lon": "1.553133504943844",
      "editable": 0
    },
    {
      "id": "3781",
      "name": "Another Place",
      "lat": "53.478940208465474",
      "lon": "-3.045889360351566",
      "editable": 0
    },
    {
      "id": "3780",
      "name": "Castle Carr",
      "lat": "53.7557235",
      "lon": "-1.9517180",
      "editable": 0
    },
    {
      "id": "3779",
      "name": "Ridgefield Wildlife Refuge - Carty Unit",
      "lat": "45.83128700912422",
      "lon": "-122.74845622125554",
      "editable": 0
    },
    {
      "id": "3778",
      "name": "Ridgefield Wildlife Refuge - River S Unit",
      "lat": "45.807374101798764",
      "lon": "-122.73382788123774",
      "editable": 0
    },
    {
      "id": "3777",
      "name": "Fort Vancouver National Historic Site",
      "lat": "45.62424779567907",
      "lon": "-122.66153698386836",
      "editable": 0
    },
    {
      "id": "3776",
      "name": "Pearson Air Museum",
      "lat": "45.62408067478942",
      "lon": "-122.65641969146423",
      "editable": 0
    },
    {
      "id": "3775",
      "name": "Samuel Mudd House",
      "lat": "38.60898101196505",
      "lon": "-76.82589032114254",
      "editable": 0
    },
    {
      "id": "3774",
      "name": "Calvert Marine Museum",
      "lat": "38.330681462475326",
      "lon": "-76.46501828437499",
      "editable": 0
    },
    {
      "id": "3773",
      "name": "Garfielf Park Conservatory",
      "lat": "41.881482",
      "lon": "-87.716351",
      "editable": 0
    },
    {
      "id": "3772",
      "name": "Jefferson Patterson Park & Museum",
      "lat": "38.398964919451466",
      "lon": "-76.50804891516111",
      "editable": 0
    },
    {
      "id": "3771",
      "name": "Chesapeake Beach Railway Museum",
      "lat": "38.69006934858266",
      "lon": "-76.53335403372193",
      "editable": 0
    },
    {
      "id": "3770",
      "name": "Flag Ponds Nature Park",
      "lat": "38.450353056996704",
      "lon": "-76.46161595000001",
      "editable": 0
    },
    {
      "id": "3769",
      "name": "Catoctin Furnace",
      "lat": "39.58081958543937",
      "lon": "-77.43339072931212",
      "editable": 0
    },
    {
      "id": "3768",
      "name": "National Pinball Museum",
      "lat": "39.288769361871495",
      "lon": "-76.60762387153477",
      "editable": 0
    },
    {
      "id": "3767",
      "name": "Montpelier Mansion",
      "lat": "39.06485876763398",
      "lon": "-76.84550452094726",
      "editable": 0
    },
    {
      "id": "3766",
      "name": "Greenbelt Museum",
      "lat": "39.00132078096942",
      "lon": "-76.87960739451904",
      "editable": 0
    },
    {
      "id": "3765",
      "name": "Radio and Television Museum",
      "lat": "38.926485378546",
      "lon": "-76.73342352610774",
      "editable": 0
    },
    {
      "id": "3764",
      "name": "Bowie Train Station Museum",
      "lat": "39.00720612211148",
      "lon": "-76.77882868510437",
      "editable": 0
    },
    {
      "id": "3763",
      "name": "Belair Mansion",
      "lat": "38.96563802884132",
      "lon": "-76.74682456713867",
      "editable": 0
    },
    {
      "id": "3762",
      "name": "Patuxent Rural Life Museums",
      "lat": "38.75294270053723",
      "lon": "-76.70976106889646",
      "editable": 0
    },
    {
      "id": "3761",
      "name": "New York State Museum",
      "lat": "42.6500000",
      "lon": "-73.7600000",
      "editable": 0
    },
    {
      "id": "3760",
      "name": "Headstone of Brusher Mills",
      "lat": "50.814648216428246",
      "lon": "-1.568158490104679",
      "editable": 0
    },
    {
      "id": "3759",
      "name": "Chained Library",
      "lat": "50.79895601850151",
      "lon": "-1.9881655997467078",
      "editable": 0
    },
    {
      "id": "3758",
      "name": "St. Peter's Church",
      "lat": "50.72026311825353",
      "lon": "-1.8760814494323768",
      "editable": 0
    },
    {
      "id": "3757",
      "name": "Wayland's Smithy",
      "lat": "51.56673218555707",
      "lon": "-1.5960802859497107",
      "editable": 0
    },
    {
      "id": "3756",
      "name": "Stanton Drew",
      "lat": "51.36769316945473",
      "lon": "-2.583648187561039",
      "editable": 0
    },
    {
      "id": "3755",
      "name": "Maes Knoll",
      "lat": "51.38416784755093",
      "lon": "-2.5760950869751014",
      "editable": 0
    },
    {
      "id": "3754",
      "name": "Clockworks ",
      "lat": "52.926011429983554",
      "lon": "-1.4786317176055945",
      "editable": 0
    },
    {
      "id": "3753",
      "name": "Gladstone Pottery Museum",
      "lat": "52.9735444",
      "lon": "-2.1072624",
      "editable": 0
    },
    {
      "id": "3752",
      "name": "The UK's first motorway?",
      "lat": "50.66413705441469",
      "lon": "-1.9548096484375037",
      "editable": 0
    },
    {
      "id": "3751",
      "name": "Derby Arboritum",
      "lat": "52.91203865397027",
      "lon": "-1.4732887572479285",
      "editable": 0
    },
    {
      "id": "3750",
      "name": "Derby Silk Mill",
      "lat": "52.92544872475761",
      "lon": "-1.4757778472137488",
      "editable": 0
    },
    {
      "id": "3749",
      "name": "The Bascom: A Center for the Visual Arts",
      "lat": "35.05245319416822",
      "lon": "-83.19854689462892",
      "editable": 0
    },
    {
      "id": "3748",
      "name": "Caesar Creek Spillway Fossil Hunting",
      "lat": "39.47977967014425",
      "lon": "-84.05707739059449",
      "editable": 0
    },
    {
      "id": "3747",
      "name": "Suitland Bog",
      "lat": "38.837439199567825",
      "lon": "-76.9014419442139",
      "editable": 0
    },
    {
      "id": "3746",
      "name": "Liriodendron",
      "lat": "39.53385204996537",
      "lon": "-76.3600914123657",
      "editable": 0
    },
    {
      "id": "3745",
      "name": "The Susquehanna Museum",
      "lat": "39.55577887848412",
      "lon": "-76.09404860849003",
      "editable": 0
    },
    {
      "id": "3744",
      "name": "Sackville Waterfowl Park",
      "lat": "45.90123677271077",
      "lon": "-64.37410495941162",
      "editable": 0
    },
    {
      "id": "3743",
      "name": "Port Deposit, MD",
      "lat": "39.60443797603116",
      "lon": "-76.11544613792722",
      "editable": 0
    },
    {
      "id": "3742",
      "name": "Concord Point Lighthouse",
      "lat": "39.54080071421642",
      "lon": "-76.08479045097351",
      "editable": 0
    },
    {
      "id": "3741",
      "name": "Mississippi Sandhill Crane National Wildlife Refuge",
      "lat": "30.439999278153994",
      "lon": "-88.68225026636964",
      "editable": 0
    },
    {
      "id": "3740",
      "name": "Dale Abbey",
      "lat": "52.941753101427274",
      "lon": "-1.3470662458801144",
      "editable": 0
    },
    {
      "id": "3739",
      "name": "Derry Ormond Tower",
      "lat": "52.1545687486236",
      "lon": "-4.064828378601078",
      "editable": 0
    },
    {
      "id": "3738",
      "name": "Charlestown Lime Kilns",
      "lat": "56.03563805394618",
      "lon": "-3.503270370407108",
      "editable": 0
    },
    {
      "id": "3737",
      "name": "where I live",
      "lat": "37.20815144362946",
      "lon": "-120.55609486763001",
      "editable": 0
    },
    {
      "id": "3736",
      "name": "River Market",
      "lat": "49.20013210004652",
      "lon": "-122.91143688619997",
      "editable": 0
    },
    {
      "id": "3735",
      "name": "Israel Museum",
      "lat": "31.76770636152647",
      "lon": "35.203698652343746",
      "editable": 0
    },
    {
      "id": "3734",
      "name": "Big Rock Ranch - Lucasfilm Animation",
      "lat": "38.05259115821923",
      "lon": "-122.62796228480835",
      "editable": 0
    },
    {
      "id": "3733",
      "name": "Touma Medical Museum",
      "lat": "38.421752202510405",
      "lon": "-82.44407277530894",
      "editable": 0
    },
    {
      "id": "3732",
      "name": "Hagerstown Roundhouse Museum",
      "lat": "39.64106321560655",
      "lon": "-77.73469510540161",
      "editable": 0
    },
    {
      "id": "3731",
      "name": "Gainsborough Old Hall",
      "lat": "53.400691135899905",
      "lon": "-0.7784678763580359",
      "editable": 0
    },
    {
      "id": "3730",
      "name": "Mobile Exploreum",
      "lat": "30.689845101094487",
      "lon": "-88.03949212642823",
      "editable": 0
    },
    {
      "id": "3729",
      "name": "Carroll County Farm Museum",
      "lat": "39.55795427799611",
      "lon": "-76.99459644536137",
      "editable": 0
    },
    {
      "id": "3728",
      "name": "Geppi's Entertainment Museum",
      "lat": "39.28516648548841",
      "lon": "-76.61969381210179",
      "editable": 0
    },
    {
      "id": "3727",
      "name": "Smithsonian Environmental Research Center",
      "lat": "38.88927225010039",
      "lon": "-76.55309446804199",
      "editable": 0
    },
    {
      "id": "3726",
      "name": "Captain Salem Avery Museum",
      "lat": "38.84879125810334",
      "lon": "-76.51179909036864",
      "editable": 0
    },
    {
      "id": "3725",
      "name": "Annapolis Maritime Museum",
      "lat": "38.96865468093542",
      "lon": "-76.47625346972961",
      "editable": 0
    },
    {
      "id": "3724",
      "name": "United States Naval Academy",
      "lat": "38.97909337919661",
      "lon": "-76.48482044532318",
      "editable": 0
    },
    {
      "id": "3723",
      "name": "Banneker-Douglass Museum",
      "lat": "38.97758510466061",
      "lon": "-76.49359844520109",
      "editable": 0
    },
    {
      "id": "3722",
      "name": "Boring, MD",
      "lat": "39.53163276956098",
      "lon": "-76.82303093139649",
      "editable": 0
    },
    {
      "id": "3721",
      "name": "East Dundry Lane Viewpoint",
      "lat": "51.39671450975749",
      "lon": "-2.6242930418682135",
      "editable": 0
    },
    {
      "id": "3720",
      "name": "Bagh Ibne Qasim",
      "lat": "24.80894139774062",
      "lon": "67.02457093945304",
      "editable": 0
    },
    {
      "id": "3719",
      "name": "Hingol National Park",
      "lat": "25.70565613619789",
      "lon": "65.65539979687492",
      "editable": 0
    },
    {
      "id": "3718",
      "name": "Spaceport",
      "lat": "53.4093188",
      "lon": "-3.0166300",
      "editable": 0
    },
    {
      "id": "3717",
      "name": "Hancock's Resolution",
      "lat": "39.1364669431107",
      "lon": "-76.44670723618162",
      "editable": 0
    },
    {
      "id": "3716",
      "name": "Benson-Hammond House",
      "lat": "39.18954663987912",
      "lon": "-76.65458026394043",
      "editable": 0
    },
    {
      "id": "3715",
      "name": "The World of Glass",
      "lat": "53.45056888805584",
      "lon": "-2.735525590820316",
      "editable": 0
    },
    {
      "id": "3714",
      "name": "Macy's Herald Square- wooden escalators",
      "lat": "40.75089984627545",
      "lon": "-73.98928618874817",
      "editable": 0
    },
    {
      "id": "3713",
      "name": "Center of Science and Industry (COSI)",
      "lat": "39.960656832314854",
      "lon": "-83.00829075042725",
      "editable": 0
    },
    {
      "id": "3712",
      "name": "Tom Mix Ranch, ",
      "lat": "41.3057337",
      "lon": "-78.2349251",
      "editable": 0
    },
    {
      "id": "3711",
      "name": "Drake Well Museum",
      "lat": "41.524883229347004",
      "lon": "-79.7160401171875",
      "editable": 0
    },
    {
      "id": "3710",
      "name": "Discovery Station",
      "lat": "39.64316581348439",
      "lon": "-77.72293630108032",
      "editable": 0
    },
    {
      "id": "3709",
      "name": "Lonaconing Iron Furnace",
      "lat": "39.570324284330816",
      "lon": "-78.97786458354187",
      "editable": 0
    },
    {
      "id": "3708",
      "name": "Mt. Savage Museum",
      "lat": "39.69413611867005",
      "lon": "-78.88047510302738",
      "editable": 0
    },
    {
      "id": "3707",
      "name": "Allegany Museum",
      "lat": "39.65044071798285",
      "lon": "-78.76231096450806",
      "editable": 0
    },
    {
      "id": "3706",
      "name": "Circus Town Monuments",
      "lat": "42.63564610441265",
      "lon": "-88.64406250183106",
      "editable": 0
    },
    {
      "id": "3705",
      "name": "Belhaven Memorial Museum",
      "lat": "35.53618768899645",
      "lon": "-76.61825216237338",
      "editable": 0
    },
    {
      "id": "3704",
      "name": "Wheels Through Time",
      "lat": "35.512565942234865",
      "lon": "-83.07816617920838",
      "editable": 0
    },
    {
      "id": "3703",
      "name": "Quidi Vidi Historical Site",
      "lat": "47.58021523586007",
      "lon": "-52.673686963958744",
      "editable": 0
    },
    {
      "id": "3702",
      "name": "Blandy Experimental Farm/State Arboretum of Virginia",
      "lat": "39.06395642397884",
      "lon": "-78.0642492185791",
      "editable": 0
    },
    {
      "id": "3701",
      "name": "Cluj-Napoca",
      "lat": "46.751019076835206",
      "lon": "23.57192106779098",
      "editable": 0
    },
    {
      "id": "3700",
      "name": "Duke Power's EnergyExplorium",
      "lat": "35.43231542783738",
      "lon": "-80.94850302342377",
      "editable": 0
    },
    {
      "id": "3699",
      "name": "Disco Chicken",
      "lat": "35.224354195619874",
      "lon": "-80.84751248959503",
      "editable": 0
    },
    {
      "id": "3698",
      "name": "Old Man Traffic",
      "lat": "35.19565263049569",
      "lon": "-80.82732637643664",
      "editable": 0
    },
    {
      "id": "3697",
      "name": "Daniel Stowe Botanical Garden",
      "lat": "35.167537875714544",
      "lon": "-81.0567901949463",
      "editable": 0
    },
    {
      "id": "3696",
      "name": "The Harvey B. Gantt Center for African- American Arts + Culture",
      "lat": "35.223562",
      "lon": "-80.848094",
      "editable": 0
    },
    {
      "id": "3695",
      "name": "Carolinas Aviation Museum",
      "lat": "35.2197796329734",
      "lon": "-80.93008515377807",
      "editable": 0
    },
    {
      "id": "3694",
      "name": "Historic Rural Hills",
      "lat": "35.38578615278544",
      "lon": "-80.94583688101193",
      "editable": 0
    },
    {
      "id": "3693",
      "name": "Historic Latta Plantation",
      "lat": "35.35493406139993",
      "lon": "-80.93068179002381",
      "editable": 0
    },
    {
      "id": "3692",
      "name": "LaVale Toll Gate",
      "lat": "39.64008176281873",
      "lon": "-78.86146657879635",
      "editable": 0
    },
    {
      "id": "3691",
      "name": "Levine Museum of the New South",
      "lat": "35.228218703191985",
      "lon": "-80.8385865281029",
      "editable": 0
    },
    {
      "id": "3690",
      "name": "McColl Center for Visual Art",
      "lat": "35.23281572316003",
      "lon": "-80.83633648378373",
      "editable": 0
    },
    {
      "id": "3689",
      "name": "Discovery Place",
      "lat": "35.229263301737525",
      "lon": "-80.84046335218432",
      "editable": 0
    },
    {
      "id": "3688",
      "name": "ImaginOn",
      "lat": "35.2271060096197",
      "lon": "-80.83736183065946",
      "editable": 0
    },
    {
      "id": "3687",
      "name": " John James Audubon Park",
      "lat": "29.926340",
      "lon": "-90.129191",
      "editable": 0
    },
    {
      "id": "3686",
      "name": "Gordon Roberts House",
      "lat": "39.65119243636435",
      "lon": "-78.76954220001221",
      "editable": 0
    },
    {
      "id": "3685",
      "name": "The Upper Room",
      "lat": "35.0607716245596",
      "lon": "-80.90512453642344",
      "editable": 0
    },
    {
      "id": "3684",
      "name": "Remnants of Heritage USA",
      "lat": "35.0606543868787",
      "lon": "-80.91178406202391",
      "editable": 0
    },
    {
      "id": "3683",
      "name": "South of the Border",
      "lat": "34.498494688538045",
      "lon": "-79.30931510363467",
      "editable": 0
    },
    {
      "id": "3682",
      "name": "UFO Welcome Center",
      "lat": "33.3517481383224",
      "lon": "-80.68456486317137",
      "editable": 0
    },
    {
      "id": "3681",
      "name": "Thrasher Carriage Museum",
      "lat": "39.65905826751568",
      "lon": "-78.92468232137298",
      "editable": 0
    },
    {
      "id": "3680",
      "name": "Oyotunji Village",
      "lat": "32.609391202091516",
      "lon": "-80.80304287139893",
      "editable": 0
    },
    {
      "id": "3679",
      "name": "Gathland State Park",
      "lat": "39.39855226512546",
      "lon": "-77.64446559414063",
      "editable": 0
    },
    {
      "id": "3678",
      "name": "West Baden Springs Hotel",
      "lat": "38.56702375903047",
      "lon": "-86.61875485527344",
      "editable": 0
    },
    {
      "id": "3677",
      "name": "Puerto de Acapulco",
      "lat": "16.87296482901207",
      "lon": "-99.88539595703128",
      "editable": 0
    },
    {
      "id": "3676",
      "name": "Dhermi beach",
      "lat": "40.258419591603214",
      "lon": "19.561913984374996",
      "editable": 0
    },
    {
      "id": "3675",
      "name": "Blackstone Hotsprings",
      "lat": "33.12745073138704",
      "lon": "-107.2529282397461",
      "editable": 0
    },
    {
      "id": "3674",
      "name": "National Apple Museum",
      "lat": "39.92882812199568",
      "lon": "-77.2543192326172",
      "editable": 0
    },
    {
      "id": "3673",
      "name": "Casselman River Bridge",
      "lat": "39.69651998040244",
      "lon": "-79.14393566314698",
      "editable": 0
    },
    {
      "id": "3672",
      "name": "Jericho Covered Bridge",
      "lat": "39.45942914302389",
      "lon": "-76.38751905384521",
      "editable": 0
    },
    {
      "id": "3671",
      "name": "Gilpin's Falls Covered Bridge",
      "lat": "39.64864533657842",
      "lon": "-75.95517988392334",
      "editable": 0
    },
    {
      "id": "3670",
      "name": "Foxcatcher Farms Covered Bridge",
      "lat": "39.70978402362723",
      "lon": "-75.83765089044186",
      "editable": 0
    },
    {
      "id": "3669",
      "name": "Utica Mills Covered Bridge",
      "lat": "39.52578720449459",
      "lon": "-77.39854451342774",
      "editable": 0
    },
    {
      "id": "3668",
      "name": "Loys Station Covered Bridge",
      "lat": "39.60873303737002",
      "lon": "-77.35128711492916",
      "editable": 0
    },
    {
      "id": "3667",
      "name": "Roddy Road Covered Bridge",
      "lat": "39.64061299926456",
      "lon": "-77.3938737951172",
      "editable": 0
    },
    {
      "id": "3666",
      "name": "American Chestnut Land Trust",
      "lat": "38.5323190466492",
      "lon": "-76.53149072893063",
      "editable": 0
    },
    {
      "id": "3665",
      "name": "Merkle Wildlife Sanctuary",
      "lat": "38.74004964972585",
      "lon": "-76.70805404003909",
      "editable": 0
    },
    {
      "id": "3664",
      "name": "Jug Bay Wetlands Sanctuary",
      "lat": "38.780159269068356",
      "lon": "-76.7065331197266",
      "editable": 0
    },
    {
      "id": "3663",
      "name": "Edwards Park",
      "lat": "42.1652493200887",
      "lon": "-88.28912910229491",
      "editable": 0
    },
    {
      "id": "3662",
      "name": "Edwards Park",
      "lat": "42.1652493200887",
      "lon": "-88.28912910229491",
      "editable": 0
    },
    {
      "id": "3661",
      "name": "Victoria's Way Indian Sculpture Garden",
      "lat": "53.08050372306978",
      "lon": "-6.219564897460941",
      "editable": 0
    },
    {
      "id": "3660",
      "name": "Western Maryland Scenic Railroad",
      "lat": "39.64954220005989",
      "lon": "-78.76338878090667",
      "editable": 0
    },
    {
      "id": "3659",
      "name": "Lynn Canyon Suspension Bridge and Ecology Centre",
      "lat": "49.342578",
      "lon": "-123.018157",
      "editable": 0
    },
    {
      "id": "3658",
      "name": "Maryland Science Center at Baltimore",
      "lat": "39.281234",
      "lon": "-76.612269",
      "editable": 0
    },
    {
      "id": "3657",
      "name": "National Infantry Museum ",
      "lat": "32.44935561998157",
      "lon": "-85.00046394531233",
      "editable": 0
    },
    {
      "id": "3656",
      "name": "Hearthstone Historic House Museum",
      "lat": "44.254619418703065",
      "lon": "-88.41485676754871",
      "editable": 0
    },
    {
      "id": "3655",
      "name": "Locke, CA",
      "lat": "38.250262990567045",
      "lon": "-121.51027052033686",
      "editable": 0
    },
    {
      "id": "3654",
      "name": "Coliseum of Comics",
      "lat": "28.303784",
      "lon": "-81.436137",
      "editable": 0
    },
    {
      "id": "3653",
      "name": "Fun Place",
      "lat": "37.82179630070441",
      "lon": "-121.25207446281433",
      "editable": 0
    },
    {
      "id": "3652",
      "name": "Piqua Historical Area",
      "lat": "40.180502738448915",
      "lon": "-84.25698779289229",
      "editable": 0
    },
    {
      "id": "3651",
      "name": "Original State Capital",
      "lat": "38.052849",
      "lon": "-122.159541",
      "editable": 0
    },
    {
      "id": "3650",
      "name": "Swallow Falls State Park",
      "lat": "39.49668412935667",
      "lon": "-79.41994294294432",
      "editable": 0
    },
    {
      "id": "3649",
      "name": "Garrett County Historical Society Museum",
      "lat": "39.40892571487357",
      "lon": "-79.40811938755797",
      "editable": 0
    },
    {
      "id": "3648",
      "name": "B&O Railway Station",
      "lat": "39.40995108375963",
      "lon": "-79.40892913946226",
      "editable": 0
    },
    {
      "id": "3647",
      "name": "Deep Creek Lake Discovery Center",
      "lat": "39.51176007160398",
      "lon": "-79.30120500506592",
      "editable": 0
    },
    {
      "id": "3646",
      "name": "Drane House",
      "lat": "39.62955779490072",
      "lon": "-79.31301884326172",
      "editable": 0
    },
    {
      "id": "3645",
      "name": "The Big Nickel",
      "lat": "46.4931650",
      "lon": "-81.0131390",
      "editable": 0
    },
    {
      "id": "3644",
      "name": "Kopernik Observatory and Science Center",
      "lat": "42.00177447575396",
      "lon": "-76.03343151275635",
      "editable": 0
    },
    {
      "id": "3643",
      "name": "Fort Walla Walla Museum",
      "lat": "46.04760192267664",
      "lon": "-118.36608789598392",
      "editable": 0
    },
    {
      "id": "3642",
      "name": "Canadian Canoe Museum",
      "lat": "44.16236395740737",
      "lon": "-77.754980546875",
      "editable": 0
    },
    {
      "id": "3641",
      "name": "Peterborough Lift Locks",
      "lat": "44.25686308556171",
      "lon": "-78.3207764453125",
      "editable": 0
    },
    {
      "id": "3640",
      "name": "Grant Museum of Zoology",
      "lat": "51.52371497147883",
      "lon": "-0.13430657240792243",
      "editable": 0
    },
    {
      "id": "3639",
      "name": "Fort Reno",
      "lat": "35.5609092695038",
      "lon": "-98.03548477355957",
      "editable": 0
    },
    {
      "id": "3638",
      "name": "Coors Brewery",
      "lat": "39.550496897433916",
      "lon": "-105.12192390625",
      "editable": 0
    },
    {
      "id": "3637",
      "name": "Sharon Temple Museum",
      "lat": "44.10026650990234",
      "lon": "-79.44447181884766",
      "editable": 0
    },
    {
      "id": "3636",
      "name": "Groix",
      "lat": "47.64120387148767",
      "lon": "-3.4599366015625037",
      "editable": 0
    },
    {
      "id": "3635",
      "name": "The Southern Museum of Locomotive history, in assoc. Smithsonian",
      "lat": "34.02398758081922",
      "lon": "-84.61443035397565",
      "editable": 0
    },
    {
      "id": "3634",
      "name": "Micro Car Museum",
      "lat": "33.546847",
      "lon": "-83.470001",
      "editable": 0
    },
    {
      "id": "3633",
      "name": "Smith Gilbert Gardens ",
      "lat": "34.010059",
      "lon": "-84.631283",
      "editable": 0
    },
    {
      "id": "3632",
      "name": "Perperikon",
      "lat": "41.715722267910465",
      "lon": "25.464597719268795",
      "editable": 0
    },
    {
      "id": "3631",
      "name": "Gabi Tour Office",
      "lat": "41.639066347512774",
      "lon": "25.370183961944576",
      "editable": 0
    },
    {
      "id": "3630",
      "name": "Santa Barbara Museum of Natural History",
      "lat": "34.4208305",
      "lon": "-119.6981901",
      "editable": 0
    },
    {
      "id": "3629",
      "name": "Lotus Land",
      "lat": "34.4381407",
      "lon": "-119.6151426",
      "editable": 0
    },
    {
      "id": "3628",
      "name": "Dinosaur Tracks in the Blanco River",
      "lat": "30.101621109831584",
      "lon": "-98.49654577438355",
      "editable": 0
    },
    {
      "id": "3627",
      "name": "International Cryptozoology Museum",
      "lat": "43.6629964",
      "lon": "-70.2568775",
      "editable": 0
    },
    {
      "id": "3626",
      "name": "First State Capital",
      "lat": "38.22022674415704",
      "lon": "-86.13136909667969",
      "editable": 0
    },
    {
      "id": "3625",
      "name": "Angel Mounds",
      "lat": "37.96028645263404",
      "lon": "-87.58911750976563",
      "editable": 0
    },
    {
      "id": "3624",
      "name": "ARRINGTON VINEYARDS",
      "lat": "35.837510",
      "lon": "-86.689595",
      "editable": 0
    },
    {
      "id": "3623",
      "name": "California State Railroad Museum",
      "lat": "38.5824933",
      "lon": "-121.4941738",
      "editable": 0
    },
    {
      "id": "3622",
      "name": "Big John's PFI",
      "lat": "47.59432771215986",
      "lon": "-122.32713870470047",
      "editable": 0
    },
    {
      "id": "3621",
      "name": "Seattle Pinball Museum",
      "lat": "47.59795785763273",
      "lon": "-122.3249202356667",
      "editable": 0
    },
    {
      "id": "3620",
      "name": "Liem's Aquarium Shop",
      "lat": "47.598100607376004",
      "lon": "-122.32427919269105",
      "editable": 0
    },
    {
      "id": "3619",
      "name": "Uwajimaya Seattle",
      "lat": "47.5964997371545",
      "lon": "-122.32694771346127",
      "editable": 0
    },
    {
      "id": "3618",
      "name": "Poo Poo",
      "lat": "47.49935661620323",
      "lon": "-122.00924061004639",
      "editable": 0
    },
    {
      "id": "3617",
      "name": "Chesapeake Bay Maritime Museum",
      "lat": "38.78807418587064",
      "lon": "-76.21959835149534",
      "editable": 0
    },
    {
      "id": "3616",
      "name": "Three Rivers",
      "lat": "33.33875747510961",
      "lon": "-106.07608831054688",
      "editable": 0
    },
    {
      "id": "3615",
      "name": "Chesapeake & Delaware Canal",
      "lat": "39.5289134418216",
      "lon": "-75.80173976484377",
      "editable": 0
    },
    {
      "id": "3614",
      "name": "Canaan Valley National Wildlife Refuge",
      "lat": "39.094212512212785",
      "lon": "-79.41460273925782",
      "editable": 0
    },
    {
      "id": "3613",
      "name": "New River Gorge National River",
      "lat": "37.87198166937697",
      "lon": "-81.03336076855464",
      "editable": 0
    },
    {
      "id": "3612",
      "name": "Titanic Memorial",
      "lat": "38.872050675892005",
      "lon": "-77.01932160620731",
      "editable": 0
    },
    {
      "id": "3611",
      "name": "Colchester Keep & Surroundings",
      "lat": "51.89059213514261",
      "lon": "0.9030545526313745",
      "editable": 0
    },
    {
      "id": "3610",
      "name": "Sugarloaf Mountain",
      "lat": "39.2701200527741",
      "lon": "-77.39397667114258",
      "editable": 0
    },
    {
      "id": "3609",
      "name": "Dames Quarter Marsh",
      "lat": "38.18157800912447",
      "lon": "-75.91245315734864",
      "editable": 0
    },
    {
      "id": "3608",
      "name": "Scobee R/C Airfield",
      "lat": "29.726398",
      "lon": "-95.693874",
      "editable": 0
    },
    {
      "id": "3607",
      "name": "Coal Loader",
      "lat": "-33.843350243309146",
      "lon": "151.1934886151123",
      "editable": 0
    },
    {
      "id": "3606",
      "name": "Accomac, VA",
      "lat": "37.72032086893943",
      "lon": "-75.67022336724852",
      "editable": 0
    },
    {
      "id": "3605",
      "name": "Dover, DE",
      "lat": "39.15678832759879",
      "lon": "-75.52143489345701",
      "editable": 0
    },
    {
      "id": "3604",
      "name": "Miller House",
      "lat": "39.64353997002923",
      "lon": "-77.72362476452639",
      "editable": 0
    },
    {
      "id": "3603",
      "name": "Scarborough Renaissance Festival",
      "lat": "32.36125632671515",
      "lon": "-96.89005277816773",
      "editable": 0
    },
    {
      "id": "3602",
      "name": "Upper Wicomico Ferry",
      "lat": "38.34146921879694",
      "lon": "-75.69581649963379",
      "editable": 0
    },
    {
      "id": "3601",
      "name": "Sport Parachuting",
      "lat": "32.63328339149825",
      "lon": "-116.89394615356446",
      "editable": 0
    },
    {
      "id": "3600",
      "name": "Medicine Wheel",
      "lat": "44.80654723029615",
      "lon": "-107.83898018066407",
      "editable": 0
    },
    {
      "id": "3599",
      "name": "Audubon Sanctuary",
      "lat": "41.88456141083854",
      "lon": "-69.99511383239746",
      "editable": 0
    },
    {
      "id": "3598",
      "name": "Decommissioned Air Force Base",
      "lat": "42.030597793954485",
      "lon": "-70.05347870056153",
      "editable": 0
    },
    {
      "id": "3597",
      "name": "Hager House",
      "lat": "39.63967620563631",
      "lon": "-77.73024521533966",
      "editable": 0
    },
    {
      "id": "3596",
      "name": "Whitehaven Ferry",
      "lat": "38.26850000572635",
      "lon": "-75.7887731576111",
      "editable": 0
    },
    {
      "id": "3595",
      "name": "Oxford, MD",
      "lat": "38.68932598174689",
      "lon": "-76.1727387648682",
      "editable": 0
    },
    {
      "id": "3594",
      "name": "White's Ferry",
      "lat": "39.154738695643985",
      "lon": "-77.51958988372803",
      "editable": 0
    },
    {
      "id": "3593",
      "name": "Chesapeake & Ohio Canal National Historic Park",
      "lat": "38.92935035423781",
      "lon": "-77.11348198120118",
      "editable": 0
    },
    {
      "id": "3592",
      "name": "Thomas Stone National Historic Site",
      "lat": "38.52893232295148",
      "lon": "-77.03548829641721",
      "editable": 0
    },
    {
      "id": "3591",
      "name": "Port Tobacco",
      "lat": "38.510732",
      "lon": "-77.019400",
      "editable": 0
    },
    {
      "id": "3590",
      "name": "National Wildlife Visitor Center at the Patuxent Research Refuge",
      "lat": "39.027179448750545",
      "lon": "-76.79889845710449",
      "editable": 0
    },
    {
      "id": "3589",
      "name": "Rocks State Park",
      "lat": "39.64079287642404",
      "lon": "-76.41945154433591",
      "editable": 0
    },
    {
      "id": "3588",
      "name": "Paw Paw Tunnel",
      "lat": "39.55085261900471",
      "lon": "-78.46294425193787",
      "editable": 0
    },
    {
      "id": "3587",
      "name": "Center for American Archeology",
      "lat": "39.29800660554293",
      "lon": "-90.61034603707276",
      "editable": 0
    },
    {
      "id": "3585",
      "name": "Fort Washington",
      "lat": "38.71148193091837",
      "lon": "-77.03183932706304",
      "editable": 0
    },
    {
      "id": "3584",
      "name": "Gunston Hall",
      "lat": "38.66830400302211",
      "lon": "-77.1694435900879",
      "editable": 0
    },
    {
      "id": "3583",
      "name": "Plumb Grove",
      "lat": "39.6606000482107",
      "lon": "-77.9361350317871",
      "editable": 0
    },
    {
      "id": "3582",
      "name": "St. Clement's Island",
      "lat": "38.21226934533069",
      "lon": "-76.74629829589844",
      "editable": 0
    },
    {
      "id": "3581",
      "name": "Piney Point Lighthouse & Museum",
      "lat": "38.135685530050715",
      "lon": "-76.52901790802002",
      "editable": 0
    },
    {
      "id": "3580",
      "name": "Elk Neck State Park",
      "lat": "39.46162919465831",
      "lon": "-76.00226500898441",
      "editable": 0
    },
    {
      "id": "3579",
      "name": "Our Lady of the Pines",
      "lat": "39.25643051452136",
      "lon": "-79.50009010498047",
      "editable": 0
    },
    {
      "id": "3578",
      "name": "Backbone Mountain",
      "lat": "39.237686",
      "lon": "-79.477087",
      "editable": 0
    },
    {
      "id": "3577",
      "name": "Chesapeake Bay Environmental Center",
      "lat": "38.951380875562535",
      "lon": "-76.23097084228516",
      "editable": 0
    },
    {
      "id": "3576",
      "name": "Smith Island",
      "lat": "37.985943889942575",
      "lon": "-76.03520705878907",
      "editable": 0
    },
    {
      "id": "3575",
      "name": "Pocomoke State Forest",
      "lat": "38.194879829391866",
      "lon": "-75.47456297685545",
      "editable": 0
    },
    {
      "id": "3574",
      "name": "Battle Creek Cypress Swamp",
      "lat": "38.49764617318179",
      "lon": "-76.59470451210933",
      "editable": 0
    },
    {
      "id": "3573",
      "name": "National Museum of Crime and Punishment",
      "lat": "38.896733469138795",
      "lon": "-77.02159075503391",
      "editable": 0
    },
    {
      "id": "3572",
      "name": "Decatur House",
      "lat": "38.900027478488575",
      "lon": "-77.0382472730164",
      "editable": 0
    },
    {
      "id": "3571",
      "name": "Dumbarton House",
      "lat": "38.910718387453805",
      "lon": "-77.05587475066227",
      "editable": 0
    },
    {
      "id": "3570",
      "name": "Anderson House",
      "lat": "38.91066412294582",
      "lon": "-77.0476671910767",
      "editable": 0
    },
    {
      "id": "3569",
      "name": "Heurich House Museum",
      "lat": "38.908009285586395",
      "lon": "-77.04471676116032",
      "editable": 0
    },
    {
      "id": "3568",
      "name": "Woodrow Wilson House",
      "lat": "38.91398670401245",
      "lon": "-77.05177633528751",
      "editable": 0
    },
    {
      "id": "3567",
      "name": "The Textile Museum",
      "lat": "38.91381974385137",
      "lon": "-77.05114333396",
      "editable": 0
    },
    {
      "id": "3566",
      "name": "Decoy Museum",
      "lat": "39.53967913309847",
      "lon": "-76.08685725415035",
      "editable": 0
    },
    {
      "id": "3565",
      "name": "Sewall-Belmont House",
      "lat": "38.892216783798524",
      "lon": "-77.00383327667237",
      "editable": 0
    },
    {
      "id": "3564",
      "name": "Theodore Roosevelt Island",
      "lat": "38.89702154449439",
      "lon": "-77.06260173087162",
      "editable": 0
    },
    {
      "id": "3563",
      "name": "Kenilworth Aquatic Gardens",
      "lat": "38.9131852916576",
      "lon": "-76.94179503684086",
      "editable": 0
    },
    {
      "id": "3562",
      "name": "DAR Museum",
      "lat": "38.89391470659445",
      "lon": "-77.0398581",
      "editable": 0
    },
    {
      "id": "3561",
      "name": "Octagon House",
      "lat": "38.89633684173686",
      "lon": "-77.04142300849003",
      "editable": 0
    },
    {
      "id": "3560",
      "name": "Lilley Cornett Woods",
      "lat": "37.09706360037911",
      "lon": "-82.97781480644528",
      "editable": 0
    },
    {
      "id": "3559",
      "name": "US Capitol Summer House and Grotto",
      "lat": "38.891426828571504",
      "lon": "-77.01026646857304",
      "editable": 0
    },
    {
      "id": "3558",
      "name": "Folger Shakespeare Library",
      "lat": "38.88940176679766",
      "lon": "-77.00286893610996",
      "editable": 0
    },
    {
      "id": "3557",
      "name": "Battery Kemble Park",
      "lat": "38.92931197372414",
      "lon": "-77.09448783164066",
      "editable": 0
    },
    {
      "id": "3556",
      "name": "Glen Echo Park",
      "lat": "38.967442036975406",
      "lon": "-77.13954475629885",
      "editable": 0
    },
    {
      "id": "3555",
      "name": "C&O Canal National Park: Great Falls Area",
      "lat": "39.000943327440375",
      "lon": "-77.24762865930177",
      "editable": 0
    },
    {
      "id": "3554",
      "name": "Cogswell Temperance Fountain",
      "lat": "38.89364389185402",
      "lon": "-77.0217141366486",
      "editable": 0
    },
    {
      "id": "3553",
      "name": "Aspen Hill Memorial Park Pet Cemetery",
      "lat": "39.08207894803484",
      "lon": "-77.07527240648199",
      "editable": 0
    },
    {
      "id": "3552",
      "name": "Bollman Truss Semi-Suspension Bridge",
      "lat": "39.13497010196819",
      "lon": "-76.82510023297118",
      "editable": 0
    },
    {
      "id": "3551",
      "name": "Antietam National Battlefield",
      "lat": "39.47403282033154",
      "lon": "-77.74108925439452",
      "editable": 0
    },
    {
      "id": "3550",
      "name": "Eastern Neck National Wildlife Refuge",
      "lat": "39.03510051307864",
      "lon": "-76.22037956914062",
      "editable": 0
    },
    {
      "id": "3549",
      "name": "Sideling Hill",
      "lat": "39.718953339841995",
      "lon": "-78.28396389683837",
      "editable": 0
    },
    {
      "id": "3548",
      "name": "Rock Creek Cemetery",
      "lat": "38.94677006531024",
      "lon": "-77.01015918021244",
      "editable": 0
    },
    {
      "id": "3547",
      "name": "Blackwater National Wildlife Refuge",
      "lat": "38.41201919091951",
      "lon": "-76.08711860839844",
      "editable": 0
    },
    {
      "id": "3546",
      "name": "Maryland Heights",
      "lat": "39.32829898681842",
      "lon": "-77.72620169882816",
      "editable": 0
    },
    {
      "id": "3545",
      "name": "U.S. Naval Observatory",
      "lat": "38.92180000022077",
      "lon": "-77.06573455100101",
      "editable": 0
    },
    {
      "id": "3544",
      "name": "Tudor Place",
      "lat": "38.91143803067465",
      "lon": "-77.06265662229839",
      "editable": 0
    },
    {
      "id": "3543",
      "name": "Hillwood Estate and Gardens",
      "lat": "38.94397902442664",
      "lon": "-77.0524259296692",
      "editable": 0
    },
    {
      "id": "3542",
      "name": "House of the Temple",
      "lat": "38.913657780142714",
      "lon": "-77.03569791976929",
      "editable": 0
    },
    {
      "id": "3541",
      "name": "Grave of Edgar Allan Poe",
      "lat": "39.29000141794389",
      "lon": "-76.62348645564884",
      "editable": 0
    },
    {
      "id": "3540",
      "name": "Berkeley Springs, aka Bath",
      "lat": "39.627240634839126",
      "lon": "-78.2281398225586",
      "editable": 0
    },
    {
      "id": "3539",
      "name": "Fort Frederick State Park",
      "lat": "39.614125932833666",
      "lon": "-78.00311211308593",
      "editable": 0
    },
    {
      "id": "3538",
      "name": "Washington Monument State Park",
      "lat": "39.498922135428806",
      "lon": "-77.62058559810794",
      "editable": 0
    },
    {
      "id": "3537",
      "name": "Calvert Cliffs State Park",
      "lat": "38.40111366313224",
      "lon": "-76.41101737099609",
      "editable": 0
    },
    {
      "id": "3536",
      "name": "Purse State Park",
      "lat": "38.43030989897966",
      "lon": "-77.25544593994141",
      "editable": 0
    },
    {
      "id": "3535",
      "name": "Seneca Creek State Park",
      "lat": "39.150424027404604",
      "lon": "-77.24825351004642",
      "editable": 0
    },
    {
      "id": "3534",
      "name": "Brookside Botanical Gardens",
      "lat": "39.05849833484587",
      "lon": "-77.03889511291504",
      "editable": 0
    },
    {
      "id": "3533",
      "name": "Cranesville Swamp Preserve",
      "lat": "39.53037497873615",
      "lon": "-79.48361061279297",
      "editable": 0
    },
    {
      "id": "3532",
      "name": "Berkhamsted castle",
      "lat": "51.7671773",
      "lon": "-0.5722462",
      "editable": 0
    },
    {
      "id": "3531",
      "name": "Hoghton Towers",
      "lat": "53.7326059",
      "lon": "-2.5740676",
      "editable": 0
    },
    {
      "id": "3530",
      "name": "Lacock Abbey",
      "lat": "51.4145568",
      "lon": "-2.1198886",
      "editable": 0
    },
    {
      "id": "3529",
      "name": "Beamish Open Air Museum",
      "lat": "54.879432306930994",
      "lon": "-1.6583504504394568",
      "editable": 0
    },
    {
      "id": "3528",
      "name": "Venice Natural History Museum",
      "lat": "45.44199206631206",
      "lon": "12.327859478549954",
      "editable": 0
    },
    {
      "id": "3527",
      "name": "Greatham Viaduct",
      "lat": "54.629883",
      "lon": "-1.237222",
      "editable": 0
    },
    {
      "id": "3526",
      "name": "Anfield Football Stadium",
      "lat": "53.43004183735498",
      "lon": "-2.961625081939701",
      "editable": 0
    },
    {
      "id": "3525",
      "name": "The Crooked House Pub",
      "lat": "52.5151223",
      "lon": "-2.1524281",
      "editable": 0
    },
    {
      "id": "3524",
      "name": "Mappa Mundi",
      "lat": "52.0542890763493",
      "lon": "-2.7160936513062097",
      "editable": 0
    },
    {
      "id": "3523",
      "name": "Ypsilanti Automotive Heritage Museum",
      "lat": "42.245979",
      "lon": "-83.612307",
      "editable": 0
    },
    {
      "id": "3522",
      "name": "Dick and Jane's Spot",
      "lat": "46.99255894433385",
      "lon": "-120.54743426068495",
      "editable": 0
    },
    {
      "id": "3521",
      "name": "National Museum of Denmark",
      "lat": "55.674282972161684",
      "lon": "12.574882882194515",
      "editable": 0
    },
    {
      "id": "3520",
      "name": "Grey Cairns of Camster",
      "lat": "58.3795210691465",
      "lon": "-3.265873414916996",
      "editable": 0
    },
    {
      "id": "3519",
      "name": "Knap of Howar",
      "lat": "59.34932734222545",
      "lon": "-2.9107060260009803",
      "editable": 0
    },
    {
      "id": "3518",
      "name": "Bella Coola Valley Museum",
      "lat": "52.371278",
      "lon": "-126.758637",
      "editable": 0
    },
    {
      "id": "3517",
      "name": "Little Bighorn Battlefield National Monument",
      "lat": "45.568991001748586",
      "lon": "-107.4255179069824",
      "editable": 0
    },
    {
      "id": "3516",
      "name": "Royal Gorge Bridge and Park",
      "lat": "38.4621245",
      "lon": "-105.3245132",
      "editable": 0
    },
    {
      "id": "3515",
      "name": "Castle House",
      "lat": "47.66605916115901",
      "lon": "-117.23410414679716",
      "editable": 0
    },
    {
      "id": "3514",
      "name": "Bacon, WA",
      "lat": "47.50082220300711",
      "lon": "-119.32991253359984",
      "editable": 0
    },
    {
      "id": "3513",
      "name": "T. A. Leonard Barn",
      "lat": "46.704294",
      "lon": "-117.123557",
      "editable": 0
    },
    {
      "id": "3512",
      "name": "High Desert Museum",
      "lat": "43.9676560",
      "lon": "-121.3421040",
      "editable": 0
    },
    {
      "id": "3511",
      "name": "45th Parallel",
      "lat": "44.99988823851675",
      "lon": "-120.22562014086912",
      "editable": 0
    },
    {
      "id": "3510",
      "name": "Painted Hills National park",
      "lat": "44.65973997347355",
      "lon": "-120.25377260668944",
      "editable": 0
    },
    {
      "id": "3509",
      "name": "Bonne Carre Spillway",
      "lat": "30.0017551675056",
      "lon": "-90.42878874035642",
      "editable": 0
    },
    {
      "id": "3508",
      "name": "Perrine Bridge",
      "lat": "42.60068944140414",
      "lon": "-114.45373821952512",
      "editable": 0
    },
    {
      "id": "3507",
      "name": "Old Idaho State PenitentIary",
      "lat": "43.6156568",
      "lon": "-116.1170738",
      "editable": 0
    },
    {
      "id": "3506",
      "name": "Fort Pickens",
      "lat": "30.3278178726329",
      "lon": "-87.29270389470219",
      "editable": 0
    },
    {
      "id": "3505",
      "name": "Naval Aviation Museum",
      "lat": "30.34726320195152",
      "lon": "-87.30212417515872",
      "editable": 0
    },
    {
      "id": "3504",
      "name": "Kings Landing Historic Settlement",
      "lat": "45.914226385158315",
      "lon": "-67.0512714213562",
      "editable": 0
    },
    {
      "id": "3503",
      "name": "Archives of Ontario",
      "lat": "43.7771430",
      "lon": "-79.5054390",
      "editable": 0
    },
    {
      "id": "3502",
      "name": "The Beaverbrook Art Gallery",
      "lat": "45.95985565985362",
      "lon": "-66.63561377482301",
      "editable": 0
    },
    {
      "id": "3501",
      "name": "Science East",
      "lat": "45.958323579925576",
      "lon": "-66.63876913253785",
      "editable": 0
    },
    {
      "id": "3500",
      "name": "Strange Adventures",
      "lat": "45.962380848612455",
      "lon": "-66.64323232833863",
      "editable": 0
    },
    {
      "id": "3499",
      "name": "The Geek Chic",
      "lat": "45.96059837193863",
      "lon": "-66.63886569206238",
      "editable": 0
    },
    {
      "id": "3498",
      "name": "Chateau Sur Mer",
      "lat": "41.47129815553231",
      "lon": "-71.30503059254454",
      "editable": 0
    },
    {
      "id": "3497",
      "name": "The Elms",
      "lat": "41.47768075622766",
      "lon": "-71.30891406880187",
      "editable": 0
    },
    {
      "id": "3496",
      "name": "Rosecliff",
      "lat": "41.46489877103273",
      "lon": "-71.30460107670592",
      "editable": 0
    },
    {
      "id": "3495",
      "name": "Marble House",
      "lat": "41.46183438115924",
      "lon": "-71.30548120365904",
      "editable": 0
    },
    {
      "id": "3494",
      "name": "The Breakers",
      "lat": "41.469718",
      "lon": "-71.298495",
      "editable": 0
    },
    {
      "id": "3493",
      "name": "USS Alabama Battleship Memorial Park",
      "lat": "30.684122899922517",
      "lon": "-88.01572190212403",
      "editable": 0
    },
    {
      "id": "3492",
      "name": "Raymond James Stadium",
      "lat": "27.976101930327374",
      "lon": "-82.50340061144715",
      "editable": 0
    },
    {
      "id": "3491",
      "name": "Melbourne Observatory",
      "lat": "-37.82990585485296",
      "lon": "144.97458316619873",
      "editable": 0
    },
    {
      "id": "3490",
      "name": "National Stud and Japanese Garden",
      "lat": "53.145005746597015",
      "lon": "-6.909643632812504",
      "editable": 0
    },
    {
      "id": "3489",
      "name": "Madison Furnace",
      "lat": "38.93945532058999",
      "lon": "-82.52372667061462",
      "editable": 0
    },
    {
      "id": "3488",
      "name": "Leo Petroglyphs",
      "lat": "39.150728449528565",
      "lon": "-82.67466698535617",
      "editable": 0
    },
    {
      "id": "3487",
      "name": "The Ridges Cemeteries Nature Walk",
      "lat": "39.31528273408827",
      "lon": "-82.11560421576996",
      "editable": 0
    },
    {
      "id": "3486",
      "name": "Young's Dairy",
      "lat": "39.82715987746196",
      "lon": "-83.87134915419767",
      "editable": 0
    },
    {
      "id": "3485",
      "name": "Clifton Gorge State Nature Preserve",
      "lat": "39.79111517726956",
      "lon": "-83.83231170245358",
      "editable": 0
    },
    {
      "id": "3484",
      "name": "Dannemora Mine",
      "lat": "60.20577210773983",
      "lon": "17.86213971450195",
      "editable": 0
    },
    {
      "id": "3483",
      "name": "TOG Hackerspace",
      "lat": "53.34150437500756",
      "lon": "-6.268891689286761",
      "editable": 0
    },
    {
      "id": "3482",
      "name": "The Crucible",
      "lat": "37.80435986345067",
      "lon": "-122.29035382576296",
      "editable": 0
    },
    {
      "id": "3481",
      "name": "MINSTER LOVELL HALL AND DOVECOTE",
      "lat": "51.80014147692087",
      "lon": "-1.5306451148223914",
      "editable": 0
    },
    {
      "id": "3480",
      "name": "W.E.B. Du Bois Boyhood Homesite",
      "lat": "42.17757278381448",
      "lon": "-73.39351208894197",
      "editable": 0
    },
    {
      "id": "3479",
      "name": "Our Lady of Sorrows Grotto",
      "lat": "42.0031454462162",
      "lon": "-91.65469269874728",
      "editable": 0
    },
    {
      "id": "3478",
      "name": "Whitby Abbey",
      "lat": "54.488736471306",
      "lon": "-0.6075467890930213",
      "editable": 0
    },
    {
      "id": "3477",
      "name": "Jurassic Lounge",
      "lat": "-33.8744438957969",
      "lon": "151.21312238510131",
      "editable": 0
    },
    {
      "id": "3476",
      "name": "Museo Alameda",
      "lat": "29.425406469208355",
      "lon": "-98.49824361268998",
      "editable": 0
    },
    {
      "id": "3475",
      "name": "San Antonio River Walk",
      "lat": "29.42329920086324",
      "lon": "-98.4878929681015",
      "editable": 0
    },
    {
      "id": "3474",
      "name": "San Fernando Cathedral",
      "lat": "29.424294435041645",
      "lon": "-98.49382333223343",
      "editable": 0
    },
    {
      "id": "3473",
      "name": "Mission San Juan Capistrano",
      "lat": "29.331957865801648",
      "lon": "-98.45575473968506",
      "editable": 0
    },
    {
      "id": "3472",
      "name": "Mission San Jos",
      "lat": "29.36139798536544",
      "lon": "-98.47834966842652",
      "editable": 0
    },
    {
      "id": "3471",
      "name": "Mission San Francisco de la Espada",
      "lat": "29.318171",
      "lon": "-98.451649",
      "editable": 0
    },
    {
      "id": "3470",
      "name": "Mission Concepcin",
      "lat": "29.387950386839556",
      "lon": "-98.49628828231812",
      "editable": 0
    },
    {
      "id": "3469",
      "name": "The Alamo",
      "lat": "29.425801990111545",
      "lon": "-98.48628911182556",
      "editable": 0
    },
    {
      "id": "3468",
      "name": "McNay Art Museum",
      "lat": "29.485256113006727",
      "lon": "-98.45828674499512",
      "editable": 0
    },
    {
      "id": "3467",
      "name": "Ojibway Nature Centre",
      "lat": "42.262556056928055",
      "lon": "-83.07622574035645",
      "editable": 0
    },
    {
      "id": "3466",
      "name": "Hattori Botanical Laboratory",
      "lat": "31.624898972852872",
      "lon": "131.35428287322998",
      "editable": 0
    },
    {
      "id": "3465",
      "name": "Plaza de Espaa",
      "lat": "37.37723200585297",
      "lon": "-5.986985189361576",
      "editable": 0
    },
    {
      "id": "3464",
      "name": "Goonies",
      "lat": "46.18349839202341",
      "lon": "-123.8151612109375",
      "editable": 0
    },
    {
      "id": "3463",
      "name": "Chimborazo Medical Museum",
      "lat": "37.526918958089006",
      "lon": "-77.41047964797974",
      "editable": 0
    },
    {
      "id": "3462",
      "name": "Philip's Magical Paradise",
      "lat": "49.57247108254475",
      "lon": "-96.57068183846434",
      "editable": 0
    },
    {
      "id": "3461",
      "name": "Wiseman's Ferry",
      "lat": "-33.37944253310453",
      "lon": "150.98921157653808",
      "editable": 0
    },
    {
      "id": "3460",
      "name": "The Australian Reptile Park",
      "lat": "-33.41799379540677",
      "lon": "151.2765727215576",
      "editable": 0
    },
    {
      "id": "3459",
      "name": "Cape Otway Lightstation",
      "lat": "-38.859111123383876",
      "lon": "143.51241447265625",
      "editable": 0
    },
    {
      "id": "3458",
      "name": "Bouddi National Park Visitors Centre",
      "lat": "-33.52009334385432",
      "lon": "151.38265945251464",
      "editable": 0
    },
    {
      "id": "3457",
      "name": "Zombie Experience",
      "lat": "52.02364828747115",
      "lon": "-0.7490601367187537",
      "editable": 0
    },
    {
      "id": "3456",
      "name": "Studium Generale Universiteit Utrecht",
      "lat": "52.081542",
      "lon": "5.107912",
      "editable": 0
    },
    {
      "id": "3455",
      "name": "Imagination Station",
      "lat": "40.4175762",
      "lon": "-86.8897655",
      "editable": 0
    },
    {
      "id": "3454",
      "name": "Giant's Ring",
      "lat": "54.54036698274192",
      "lon": "-5.950314027709965",
      "editable": 0
    },
    {
      "id": "3453",
      "name": "Tuxpan Jalisco",
      "lat": "19.5544296869636",
      "lon": "-103.3805888984374",
      "editable": 0
    },
    {
      "id": "3452",
      "name": "Science Gallery",
      "lat": "49.90010736943971",
      "lon": "-97.13808285498658",
      "editable": 0
    },
    {
      "id": "3451",
      "name": "Planetarium",
      "lat": "49.900549651025074",
      "lon": "-97.13876950049439",
      "editable": 0
    },
    {
      "id": "3450",
      "name": "Manitoba Museum",
      "lat": "49.90032851073917",
      "lon": "-97.13636624121705",
      "editable": 0
    },
    {
      "id": "3449",
      "name": "Prairie Dog Central",
      "lat": "49.95164640057867",
      "lon": "-97.2699444574829",
      "editable": 0
    },
    {
      "id": "3448",
      "name": "Assiniboine Park Zoo",
      "lat": "49.87101746919321",
      "lon": "-97.23644303210449",
      "editable": 0
    },
    {
      "id": "3447",
      "name": "Narcisse Snake Dens",
      "lat": "50.68502395757017",
      "lon": "-97.53346107666016",
      "editable": 0
    },
    {
      "id": "3446",
      "name": "Newington Armory",
      "lat": "-33.82664239088938",
      "lon": "151.06291318804938",
      "editable": 0
    },
    {
      "id": "3445",
      "name": "The Kiama Blowhole",
      "lat": "",
      "lon": "",
      "editable": 0
    },
    {
      "id": "3444",
      "name": "The Artcraft Theater",
      "lat": "39.4806055",
      "lon": "-86.0549863",
      "editable": 0
    },
    {
      "id": "3443",
      "name": "Glacial Pavement",
      "lat": "-31.4355150398277",
      "lon": "19.26560872106927",
      "editable": 0
    },
    {
      "id": "3442",
      "name": "Train of the South historical remains",
      "lat": "17.97569814120085",
      "lon": "-66.06257756404113",
      "editable": 0
    },
    {
      "id": "3441",
      "name": "Murdock Park & Frisbee Golf Course",
      "lat": "40.4196532372747",
      "lon": "-86.87438390914917",
      "editable": 0
    },
    {
      "id": "3440",
      "name": "Historic Five Points Fire Station Museum ",
      "lat": "40.417513178329315",
      "lon": "-86.8790724105072",
      "editable": 0
    },
    {
      "id": "3439",
      "name": "Jerry E. Clegg Botanical Garden",
      "lat": "40.44199726639289",
      "lon": "-86.82906530563355",
      "editable": 0
    },
    {
      "id": "3438",
      "name": "Art Museum of Greater Lafayette",
      "lat": "40.416091880191885",
      "lon": "-86.88594423000336",
      "editable": 0
    },
    {
      "id": "3437",
      "name": "Columbian Park and Zoo",
      "lat": "40.413510595303975",
      "lon": "-86.8713798350525",
      "editable": 0
    },
    {
      "id": "3436",
      "name": "Red Crown Mini-Museum",
      "lat": "40.41728446571341",
      "lon": "-86.890380603714",
      "editable": 0
    },
    {
      "id": "3435",
      "name": "Tippecanoe Battlefield",
      "lat": "40.50800593479273",
      "lon": "-86.83859251205445",
      "editable": 0
    },
    {
      "id": "3434",
      "name": "FORT OUIATENON HISTORICAL PARK",
      "lat": "40.405408422078835",
      "lon": "-86.9594992565552",
      "editable": 0
    },
    {
      "id": "3433",
      "name": "The Cloisters",
      "lat": "40.8647975914726",
      "lon": "-73.93174908821106",
      "editable": 0
    },
    {
      "id": "3432",
      "name": "Castlerigg Stone Circle",
      "lat": "54.60294594831409",
      "lon": "-3.098825437469486",
      "editable": 0
    },
    {
      "id": "3431",
      "name": "King Arthur's Round Table Henge",
      "lat": "54.64802626623064",
      "lon": "-2.7404608554077186",
      "editable": 0
    },
    {
      "id": "3430",
      "name": "Mayburgh Henge",
      "lat": "54.64847321673562",
      "lon": "-2.7461256808471717",
      "editable": 0
    },
    {
      "id": "3429",
      "name": "Vedbkfundene",
      "lat": "55.828985054619075",
      "lon": "12.516995447235104",
      "editable": 0
    },
    {
      "id": "3428",
      "name": "Fair Park",
      "lat": "33.0386278",
      "lon": "-96.8243812",
      "editable": 0
    },
    {
      "id": "3427",
      "name": "Valby Hegn",
      "lat": "56.041397815217",
      "lon": "12.210773008422848",
      "editable": 0
    },
    {
      "id": "3426",
      "name": "Orkney Mueum",
      "lat": "58.98141905034452",
      "lon": "-2.961099368972782",
      "editable": 0
    },
    {
      "id": "3425",
      "name": "Cresswell Crags",
      "lat": "53.26422328736123",
      "lon": "-1.196323854370121",
      "editable": 0
    },
    {
      "id": "3424",
      "name": "Barnhouse Neolithic village",
      "lat": "58.9955863001007",
      "lon": "-3.2085814303588904",
      "editable": 0
    },
    {
      "id": "3423",
      "name": "Stones of Stenness circle and henge",
      "lat": "58.9938398920885",
      "lon": "-3.2075085467529334",
      "editable": 0
    },
    {
      "id": "3422",
      "name": "Ness of Brodgar archaeological excavation",
      "lat": "58.99731051478483",
      "lon": "-3.2157912081909217",
      "editable": 0
    },
    {
      "id": "3421",
      "name": "Ring of Brodgar stone circle and henge",
      "lat": "59.00121178440839",
      "lon": "-3.2280006236267127",
      "editable": 0
    },
    {
      "id": "3420",
      "name": "Skara Brae",
      "lat": "59.05219704776252",
      "lon": "-3.335482103271488",
      "editable": 0
    },
    {
      "id": "3419",
      "name": "Maes Howe",
      "lat": "58.995144179863345",
      "lon": "-3.1885828799438514",
      "editable": 0
    },
    {
      "id": "3418",
      "name": "Battersea Town Hall",
      "lat": "51.4655521",
      "lon": "-0.1610247",
      "editable": 0
    },
    {
      "id": "3417",
      "name": "Hull and East Riding Museum",
      "lat": "53.7432307802115",
      "lon": "-0.3306087083053626",
      "editable": 0
    },
    {
      "id": "3416",
      "name": "Trevithick Day",
      "lat": "50.21375193513832",
      "lon": "-5.301434022827152",
      "editable": 0
    },
    {
      "id": "3415",
      "name": "Bestwood Winding Engine House",
      "lat": "53.02230719520196",
      "lon": "-1.172849161071781",
      "editable": 0
    },
    {
      "id": "3414",
      "name": "Aereopuerto LAX",
      "lat": "33.9516114",
      "lon": "-118.3875775",
      "editable": 0
    },
    {
      "id": "3413",
      "name": "Virginia Zoo in Norfolk",
      "lat": "36.8537392",
      "lon": "-76.2652909",
      "editable": 0
    },
    {
      "id": "3412",
      "name": "The Ellen Powell Tiberino Memorial Museum",
      "lat": "39.96154522050214",
      "lon": "-75.19780034093094",
      "editable": 0
    },
    {
      "id": "3411",
      "name": "Museo Frida Kahlo",
      "lat": "19.4326077",
      "lon": "-99.1332080",
      "editable": 0
    },
    {
      "id": "3410",
      "name": "Black pottery market",
      "lat": "16.95843365367813",
      "lon": "-96.70982979003907",
      "editable": 0
    },
    {
      "id": "3409",
      "name": "Littletone Covered bridge",
      "lat": "46.231667",
      "lon": "-67.840294",
      "editable": 0
    },
    {
      "id": "3408",
      "name": "Borderlands Books and Cafe",
      "lat": "37.758797892968914",
      "lon": "-122.42155310980229",
      "editable": 0
    },
    {
      "id": "3407",
      "name": "Palace of Gold",
      "lat": "39.9359736591029",
      "lon": "-80.75025699798584",
      "editable": 0
    },
    {
      "id": "3406",
      "name": "American Visionary Art Museum",
      "lat": "39.28014436241147",
      "lon": "-76.60669582721562",
      "editable": 0
    },
    {
      "id": "3405",
      "name": "Shoshone Indian Ice Caves",
      "lat": "42.879846279020555",
      "lon": "-114.39438484375",
      "editable": 0
    },
    {
      "id": "3404",
      "name": "Fernbank Science Center and Forest",
      "lat": "33.7724417",
      "lon": "-84.3279093",
      "editable": 0
    },
    {
      "id": "3403",
      "name": "Hoffmann Kiln, Craven Lime Works",
      "lat": "54.09257077732113",
      "lon": "-2.2709964937400855",
      "editable": 0
    },
    {
      "id": "3402",
      "name": "The Woodwright's School",
      "lat": "35.7201463",
      "lon": "-79.1772371",
      "editable": 0
    },
    {
      "id": "3401",
      "name": "Edwin B. Forsythe National Wildlife Refuge",
      "lat": "39.45652261880315",
      "lon": "-74.42363403503418",
      "editable": 0
    },
    {
      "id": "3400",
      "name": "Cumberland Caverns",
      "lat": "35.666314413282265",
      "lon": "-85.68367601303708",
      "editable": 0
    },
    {
      "id": "3399",
      "name": "Kerner Optical (aka the Original home of Industrial Light & Magic)",
      "lat": "37.95976425696143",
      "lon": "-122.50157339208221",
      "editable": 0
    },
    {
      "id": "3398",
      "name": "WildCare",
      "lat": "37.96792048461745",
      "lon": "-122.52752175081332",
      "editable": 0
    },
    {
      "id": "3397",
      "name": "California Marshall Gold Discovery Site",
      "lat": "38.80345154187704",
      "lon": "-120.89254406202394",
      "editable": 0
    },
    {
      "id": "3396",
      "name": "Hidden Chateau, Canoga Mission Gallery",
      "lat": "34.19903729129616",
      "lon": "-118.63084848521345",
      "editable": 0
    },
    {
      "id": "3395",
      "name": "Hidden Chateau, Canoga Mission Gallery",
      "lat": "34.19903729129616",
      "lon": "-118.63084848521345",
      "editable": 0
    },
    {
      "id": "3394",
      "name": "Hidden Chateau, Canoga Mission Gallery",
      "lat": "34.19903729129616",
      "lon": "-118.63084848521345",
      "editable": 0
    },
    {
      "id": "3393",
      "name": "Iverson Movie Ranch",
      "lat": "34.27466947830695",
      "lon": "-118.6115499913513",
      "editable": 0
    },
    {
      "id": "3392",
      "name": "Iverson Movie Ranch",
      "lat": "34.27466947830695",
      "lon": "-118.6115499913513",
      "editable": 0
    },
    {
      "id": "3391",
      "name": "Old Library and Old Central High School",
      "lat": "46.78761928834333",
      "lon": "-92.10125813022461",
      "editable": 0
    },
    {
      "id": "3390",
      "name": "Beaner's Central",
      "lat": "46.743054",
      "lon": "-92.153958",
      "editable": 0
    },
    {
      "id": "3389",
      "name": "Dark Delicacies Bookstore",
      "lat": "34.16819264308575",
      "lon": "-118.34540122186922",
      "editable": 0
    },
    {
      "id": "3388",
      "name": "West Palm Kickball",
      "lat": "26.70603188848352",
      "lon": "-80.06047867004395",
      "editable": 0
    },
    {
      "id": "3387",
      "name": "The Museum of Policing  in Cheshire",
      "lat": "53.38631213496644",
      "lon": "-2.600924295825962",
      "editable": 0
    },
    {
      "id": "3386",
      "name": "The Apple Campus",
      "lat": "37.33196527675984",
      "lon": "-122.03061578146366",
      "editable": 0
    },
    {
      "id": "3385",
      "name": "Muir Woods National Monument",
      "lat": "37.89060340605015",
      "lon": "-122.57128474584965",
      "editable": 0
    },
    {
      "id": "3384",
      "name": "Point Bonita Lighthouse",
      "lat": "37.81537775637685",
      "lon": "-122.5300860153809",
      "editable": 0
    },
    {
      "id": "3383",
      "name": "Nike Missle Site",
      "lat": "37.8265309064972",
      "lon": "-122.53111598364262",
      "editable": 0
    },
    {
      "id": "3382",
      "name": "Alcatraz",
      "lat": "37.82676818925286",
      "lon": "-122.42331263891606",
      "editable": 0
    },
    {
      "id": "3381",
      "name": "EPFL's Rolex Learning Center",
      "lat": "46.520704924118064",
      "lon": "6.599935072021481",
      "editable": 0
    },
    {
      "id": "3380",
      "name": "US National Arboretum",
      "lat": "38.9052763",
      "lon": "-76.9815877",
      "editable": 0
    },
    {
      "id": "3379",
      "name": "Silver Springs",
      "lat": "29.2413301",
      "lon": "-81.8879884",
      "editable": 0
    },
    {
      "id": "3378",
      "name": "Germaine Cazenave Wells Mardi Gras Museum",
      "lat": "29.9595769",
      "lon": "-90.0770127",
      "editable": 0
    },
    {
      "id": "3377",
      "name": "Stetson University",
      "lat": "29.0226229",
      "lon": "-81.3033269",
      "editable": 0
    },
    {
      "id": "3376",
      "name": "Amoeba Music",
      "lat": "34.097238",
      "lon": "-118.329515",
      "editable": 0
    },
    {
      "id": "3375",
      "name": "The Parthenon",
      "lat": "36.17707904386216",
      "lon": "-86.78642891113282",
      "editable": 0
    },
    {
      "id": "3374",
      "name": "Ohio Historical Museum",
      "lat": "40.015896410880096",
      "lon": "-83.00369880859375",
      "editable": 0
    },
    {
      "id": "3373",
      "name": "L.A.S.F.S clubhouse",
      "lat": "34.17964202905274",
      "lon": "-118.44429270847888",
      "editable": 0
    },
    {
      "id": "3372",
      "name": "Mott's Military Museum",
      "lat": "39.85478793003344",
      "lon": "-82.984472734375",
      "editable": 0
    },
    {
      "id": "3371",
      "name": "Doll Museum",
      "lat": "39.82948160752256",
      "lon": "-82.8801026171875",
      "editable": 0
    },
    {
      "id": "3370",
      "name": "Fullwell Windmill",
      "lat": "54.92838476490095",
      "lon": "-1.390026968585289",
      "editable": 0
    },
    {
      "id": "3369",
      "name": "Ryhope Engines Museum",
      "lat": "54.865298",
      "lon": "-1.372376",
      "editable": 0
    },
    {
      "id": "3368",
      "name": "Fort Worth Museum of Science and History",
      "lat": "32.7376150",
      "lon": "-97.3840729",
      "editable": 0
    },
    {
      "id": "3367",
      "name": "National Glass Centre",
      "lat": "54.912801491557246",
      "lon": "-1.3711024836730985",
      "editable": 0
    },
    {
      "id": "3366",
      "name": "U.S. National Tick Collection",
      "lat": "32.454018778222675",
      "lon": "-81.75357832109376",
      "editable": 0
    },
    {
      "id": "3365",
      "name": "Greenwood, AR better known as Home",
      "lat": "35.23311565511078",
      "lon": "-94.31047358476565",
      "editable": 0
    },
    {
      "id": "3362",
      "name": "Gadget Heaven (HuaQiangBei)",
      "lat": "22.541492353958798",
      "lon": "114.0871017603722",
      "editable": 0
    },
    {
      "id": "3361",
      "name": "Houghton Mill",
      "lat": "52.3313058747276",
      "lon": "-0.12029047339319732",
      "editable": 0
    },
    {
      "id": "3360",
      "name": "STOTT PARK BOBBIN MILL",
      "lat": "54.28504325350563",
      "lon": "-2.9651068294250535",
      "editable": 0
    },
    {
      "id": "3359",
      "name": "STOTT PARK BOBBIN MILL",
      "lat": "54.28504325350563",
      "lon": "-2.9651068294250535",
      "editable": 0
    },
    {
      "id": "3358",
      "name": "Star City",
      "lat": "52.50541931765822",
      "lon": "-1.8565335101318396",
      "editable": 0
    },
    {
      "id": "3357",
      "name": "GAINSTHORPE MEDIEVAL VILLAGE",
      "lat": "53.5014347212452",
      "lon": "-0.5561556643676795",
      "editable": 0
    },
    {
      "id": "3356",
      "name": "Humberhead Levels",
      "lat": "53.53338142999233",
      "lon": "-0.9785284823608436",
      "editable": 0
    },
    {
      "id": "3355",
      "name": "Holy Trinity Church",
      "lat": "55.4181550",
      "lon": "-104.5633579",
      "editable": 0
    },
    {
      "id": "3354",
      "name": "The Majestic Theatre",
      "lat": "52.0508230",
      "lon": "-107.9879870",
      "editable": 0
    },
    {
      "id": "3353",
      "name": "The Sandra Schmirler Olympic Gold Park",
      "lat": "52.0508230",
      "lon": "-107.9879870",
      "editable": 0
    },
    {
      "id": "3352",
      "name": "Biggar Museum and Gallery",
      "lat": "52.0508230",
      "lon": "-107.9879870",
      "editable": 0
    },
    {
      "id": "3351",
      "name": "Craik Eco-Village",
      "lat": "51.0566600",
      "lon": "-105.8334280",
      "editable": 0
    },
    {
      "id": "3350",
      "name": "Marin Civic Center",
      "lat": "38.0270044",
      "lon": "-122.5485873",
      "editable": 0
    },
    {
      "id": "3349",
      "name": "Winterbourne Gardens",
      "lat": "52.4534541",
      "lon": "-1.9248347",
      "editable": 0
    },
    {
      "id": "3348",
      "name": "Libreria El Ateneo ",
      "lat": "-34.5959527161065",
      "lon": "-58.39419554727135",
      "editable": 0
    },
    {
      "id": "3347",
      "name": "Museo Nacional de Bellas Artes",
      "lat": "-34.58416596884602",
      "lon": "-58.39312217895508",
      "editable": 0
    },
    {
      "id": "3346",
      "name": "Pettit Olympic oval",
      "lat": "43.0252141234044",
      "lon": "-88.016211015625",
      "editable": 0
    },
    {
      "id": "3345",
      "name": "Downtown Ferndale",
      "lat": "42.461379485721324",
      "lon": "-83.13715190724793",
      "editable": 0
    },
    {
      "id": "3344",
      "name": "John King Books",
      "lat": "42.326838366925486",
      "lon": "-83.05634231404724",
      "editable": 0
    },
    {
      "id": "3343",
      "name": "Belle Isle",
      "lat": "42.33596743368318",
      "lon": "-82.99717278317871",
      "editable": 0
    },
    {
      "id": "3342",
      "name": "The Infamous Gum Tree",
      "lat": "42.279688468490086",
      "lon": "-83.74242280443804",
      "editable": 0
    },
    {
      "id": "3341",
      "name": "Dawn Treader Book Shop",
      "lat": "42.27924961331908",
      "lon": "-83.74269041678622",
      "editable": 0
    },
    {
      "id": "3340",
      "name": "Newtown Market - Best frozen custard EVER.",
      "lat": "39.134737312903646",
      "lon": "-84.33571073672488",
      "editable": 0
    },
    {
      "id": "3339",
      "name": "Yottaquest Game Store",
      "lat": "39.23330021648231",
      "lon": "-84.5487425055237",
      "editable": 0
    },
    {
      "id": "3338",
      "name": "The Stade",
      "lat": "50.85517131386582",
      "lon": "0.5928597622680627",
      "editable": 0
    },
    {
      "id": "3337",
      "name": "SmartHome",
      "lat": "33.69540995894358",
      "lon": "-117.82915197078705",
      "editable": 0
    },
    {
      "id": "3336",
      "name": "Santee Drive-In",
      "lat": "32.846550",
      "lon": "-116.958207",
      "editable": 0
    },
    {
      "id": "3335",
      "name": "Flying Leathernecks Aviation Museum",
      "lat": "32.891023",
      "lon": "-117.138666",
      "editable": 0
    },
    {
      "id": "3334",
      "name": "Exorcist Stairs",
      "lat": "38.9069752",
      "lon": "-77.0650809",
      "editable": 0
    },
    {
      "id": "3333",
      "name": "Smithfield Plantation",
      "lat": "37.2180000",
      "lon": "-80.4317000",
      "editable": 0
    },
    {
      "id": "3332",
      "name": "Finngrund",
      "lat": "63.30848928130432",
      "lon": "21.100965517120358",
      "editable": 0
    },
    {
      "id": "3331",
      "name": "Patterson's Mill",
      "lat": "35.92558437868218",
      "lon": "-78.988795996872",
      "editable": 0
    },
    {
      "id": "3330",
      "name": "North Carolina Botanical Gardens",
      "lat": "35.90096746177063",
      "lon": "-79.03226924058538",
      "editable": 0
    },
    {
      "id": "3329",
      "name": "Coker Arboretum ",
      "lat": "35.91324646499624",
      "lon": "-79.04870581742864",
      "editable": 0
    },
    {
      "id": "3328",
      "name": "Wilson Library",
      "lat": "35.90949257705871",
      "lon": "-79.04968214151006",
      "editable": 0
    },
    {
      "id": "3327",
      "name": "Polk Place",
      "lat": "35.91044844505585",
      "lon": "-79.05031514283758",
      "editable": 0
    },
    {
      "id": "3326",
      "name": "Ackland Art Museum",
      "lat": "35.912507866860985",
      "lon": "-79.05498218652349",
      "editable": 0
    },
    {
      "id": "3325",
      "name": "Morehead Planetarium",
      "lat": "35.914393371412324",
      "lon": "-79.0514384090576",
      "editable": 0
    },
    {
      "id": "3324",
      "name": "World's Largest Frying Pan",
      "lat": "34.82616759073608",
      "lon": "-78.02199981872559",
      "editable": 0
    },
    {
      "id": "3323",
      "name": "Fort Macon State Park",
      "lat": "34.696228",
      "lon": "-76.691116",
      "editable": 0
    },
    {
      "id": "3322",
      "name": "NC Aquariums - Jeannette's Pier",
      "lat": "35.90669097937052",
      "lon": "-75.59891365234375",
      "editable": 0
    },
    {
      "id": "3321",
      "name": "Fort Ticonderoga",
      "lat": "43.592186",
      "lon": "-73.360449",
      "editable": 0
    },
    {
      "id": "3320",
      "name": "American Guitar musem",
      "lat": "40.74203671812863",
      "lon": "-73.68540428344715",
      "editable": 0
    },
    {
      "id": "3319",
      "name": "Bradford Island Visitors Center",
      "lat": "45.6698392",
      "lon": "-121.8906354",
      "editable": 0
    },
    {
      "id": "3318",
      "name": "Burlingame Museum of Pez Memorabilia",
      "lat": "37.579253348158964",
      "lon": "-122.34435580436707",
      "editable": 0
    },
    {
      "id": "3317",
      "name": "Club Cyberia",
      "lat": "39.811385825003086",
      "lon": "-86.04940078918457",
      "editable": 0
    },
    {
      "id": "3316",
      "name": "Bothwell Lodge",
      "lat": "38.7044609",
      "lon": "-93.2282613",
      "editable": 0
    },
    {
      "id": "3315",
      "name": "Utah County Race Way",
      "lat": "40.1444181583812",
      "lon": "-111.64110801879883",
      "editable": 0
    },
    {
      "id": "3314",
      "name": "Utah County Race Way",
      "lat": "40.1444181583812",
      "lon": "-111.64110801879883",
      "editable": 0
    },
    {
      "id": "3313",
      "name": "CDC Museum",
      "lat": "33.799636",
      "lon": "-84.325835",
      "editable": 0
    },
    {
      "id": "3312",
      "name": "Tyrrellspass Castle",
      "lat": "53.39263053678987",
      "lon": "-7.371069414062504",
      "editable": 0
    },
    {
      "id": "3311",
      "name": "Floralis Generica",
      "lat": "-34.58162355614263",
      "lon": "-58.393978544859294",
      "editable": 0
    },
    {
      "id": "3310",
      "name": "Antique typewriter exhibit",
      "lat": "38.04760762566521",
      "lon": "-84.49794135753632",
      "editable": 0
    },
    {
      "id": "3309",
      "name": "Bass Pro Shops",
      "lat": "37.180586",
      "lon": "-93.297576",
      "editable": 0
    },
    {
      "id": "3308",
      "name": "Chinati Foundation",
      "lat": "30.300165394502354",
      "lon": "-104.02674577896119",
      "editable": 0
    },
    {
      "id": "3307",
      "name": "Herbert Hoover Museum",
      "lat": "41.6714086",
      "lon": "-91.3465521",
      "editable": 0
    },
    {
      "id": "3306",
      "name": "Florence Griswold Museum ",
      "lat": "41.32614824782333",
      "lon": "-72.32631824676514",
      "editable": 0
    },
    {
      "id": "3305",
      "name": "Mysic Seaport",
      "lat": "41.36120269092919",
      "lon": "-71.96507833663941",
      "editable": 0
    },
    {
      "id": "3304",
      "name": "Project Oceanology",
      "lat": "41.31776847347615",
      "lon": "-72.06612251464844",
      "editable": 0
    },
    {
      "id": "3303",
      "name": "Manchebo beach",
      "lat": "12.542392126683797",
      "lon": "-70.06223343078614",
      "editable": 0
    },
    {
      "id": "3302",
      "name": "Arashi beach",
      "lat": "12.610121266365246",
      "lon": "-70.05309246246338",
      "editable": 0
    },
    {
      "id": "3301",
      "name": "Philo Farnsworth's lab",
      "lat": "37.80031748780747",
      "lon": "-122.40268580381394",
      "editable": 0
    },
    {
      "id": "3300",
      "name": "Centennial Bulb",
      "lat": "37.68008012527292",
      "lon": "-121.73937283222199",
      "editable": 0
    },
    {
      "id": "3299",
      "name": "HP Garage",
      "lat": "37.442945114514906",
      "lon": "-122.1544956392479",
      "editable": 0
    },
    {
      "id": "3298",
      "name": "The Edmonton Symphony Orchestra/ Winspear Centre",
      "lat": "53.5438427",
      "lon": "-113.4886202",
      "editable": 0
    },
    {
      "id": "3297",
      "name": "Edmonton Opera",
      "lat": "53.5229560",
      "lon": "-113.5671400",
      "editable": 0
    },
    {
      "id": "3296",
      "name": "Legislative Assembly of Alberta",
      "lat": "53.5343965",
      "lon": "-113.5039334",
      "editable": 0
    },
    {
      "id": "3295",
      "name": "Devonian Gardens",
      "lat": "53.5268855",
      "lon": "-113.5249877",
      "editable": 0
    },
    {
      "id": "3294",
      "name": "Paleontology Museum",
      "lat": "53.52818417456179",
      "lon": "-113.52295967881776",
      "editable": 0
    },
    {
      "id": "3293",
      "name": "Art Gallery Of Alberta",
      "lat": "53.54488986402709",
      "lon": "-113.48852918545532",
      "editable": 0
    },
    {
      "id": "3292",
      "name": "Royal Alberta Musuem",
      "lat": "53.5429490",
      "lon": "-113.5435910",
      "editable": 0
    },
    {
      "id": "3291",
      "name": "Fort Edmonton Park",
      "lat": "53.50131676137043",
      "lon": "-113.57757982080079",
      "editable": 0
    },
    {
      "id": "3290",
      "name": "Telus World Of Science",
      "lat": "53.561009161524616",
      "lon": "-113.56350086395264",
      "editable": 0
    },
    {
      "id": "3289",
      "name": "Space Needle",
      "lat": "47.60959824502528",
      "lon": "-122.34466489661861",
      "editable": 0
    },
    {
      "id": "3288",
      "name": "ARoS Museum",
      "lat": "56.1460465",
      "lon": "10.2027260",
      "editable": 0
    },
    {
      "id": "3287",
      "name": "Washington State History Museum",
      "lat": "47.24441758169307",
      "lon": "-122.43585783967285",
      "editable": 0
    },
    {
      "id": "3286",
      "name": "Museum of Glass",
      "lat": "47.24615712131814",
      "lon": "-122.43427417938233",
      "editable": 0
    },
    {
      "id": "3285",
      "name": "Minuteman Missile National Historic Site",
      "lat": "43.833737618666014",
      "lon": "-101.89999945227623",
      "editable": 0
    },
    {
      "id": "3284",
      "name": "Museum of Fine Arts",
      "lat": "42.339305909633666",
      "lon": "-71.09391830627442",
      "editable": 0
    },
    {
      "id": "3283",
      "name": "Fort Worden",
      "lat": "48.14115310488107",
      "lon": "-122.77508973607178",
      "editable": 0
    },
    {
      "id": "3282",
      "name": "Fort Flagler",
      "lat": "48.08797473282238",
      "lon": "-122.70385026463623",
      "editable": 0
    },
    {
      "id": "3281",
      "name": "Robert Frost Farm",
      "lat": "42.870296385707114",
      "lon": "-71.29461702253417",
      "editable": 0
    },
    {
      "id": "3280",
      "name": "Kangaroo Island",
      "lat": "-35.804607643630575",
      "lon": "137.313378828125",
      "editable": 0
    },
    {
      "id": "3279",
      "name": "Nanaimo",
      "lat": "49.165414900553046",
      "lon": "-123.94425056640625",
      "editable": 0
    },
    {
      "id": "3278",
      "name": "Chief's South by Southwest",
      "lat": "39.64484298455041",
      "lon": "-86.8642752187103",
      "editable": 0
    },
    {
      "id": "3277",
      "name": "The Hunterian Museum",
      "lat": "51.5152839",
      "lon": "-0.1158997",
      "editable": 0
    },
    {
      "id": "3276",
      "name": "Fantasy Game World",
      "lat": "39.7604093010763",
      "lon": "-121.85118429982913",
      "editable": 0
    },